premise_city,license_designation,business_legal_name,business_phone,id,license_number,licensing_authority_id,licensing_authority,premise_state,license_status,license_status_date,license_type,license_term,issue_date,expiration_date,business_owner_name,business_structure,activity,parcel_number,business_email,business_image_url,business_dba_name,premise_street_address,premise_county,premise_zip_code,premise_latitude,premise_longitude,business_website,data_refreshed_date
Acton,Medical Only,406 Essence Of Safe Access,(406) 696-0849,0,,MTCCD,Montana Cannabis Control Division,MT,Active,,Commercial - Retailer,,,,,,,,,,406 Essence Of Safe Access,2601 Overland Ave Suite 2,Yellowstone County,59102,45.7501445,-108.582318,https://406essence.com/,2023-04-24T21:19:46.235918
Anaconda,Medical Only,Gnome Gardens,(406) 224-2063,1,,MTCCD,Montana Cannabis Control Division,MT,Active,,Commercial - Retailer,,,,,,,,,,Gnome Gardens,,,,,,,2023-04-24T21:19:46.235918
Anaconda,Adult Use,Remedy Medicinals LLC,(406) 490-9298,2,,MTCCD,Montana Cannabis Control Division,MT,Active,,Commercial - Retailer,,,,,,,,,,Remedy Medicinals LLC,910 E Commercial Ave,Deer Lodge County,59711,46.1286069,-112.9408351,https://www.remedymontana.com/,2023-04-24T21:19:46.235918
Arlee,Adult Use,Jocko River Roots  LLC.,(406) 880-5081,3,,MTCCD,Montana Cannabis Control Division,MT,Active,,Commercial - Retailer,,,,,,,,,,Jocko River Roots  LLC.,,,,,,,2023-04-24T21:19:46.235918
Ashland,Adult Use,Ashland,(406) 459-2618,4,,MTCCD,Montana Cannabis Control Division,MT,Active,,Commercial - Retailer,,,,,,,,,,Ashland,,,,,,,2023-04-24T21:19:46.235918
Ashland,Adult Use,High Mountain - Ashland,(406) 698-8754,5,,MTCCD,Montana Cannabis Control Division,MT,Active,,Commercial - Retailer,,,,,,,,,,High Mountain - Ashland,107 Main St,Rosebud County,59003,45.589361,-106.2626306,http://www.highmountainmt.com/,2023-04-24T21:19:46.235918
Ashland,Adult Use,Ninepipe Organics,(406) 690-1467,6,,MTCCD,Montana Cannabis Control Division,MT,Active,,Commercial - Retailer,,,,,,,,,,Ninepipe Organics,,,,,,,2023-04-24T21:19:46.235918
Belgrade,Adult Use,Juniper Naturals LLC,(406) 600-2553,7,,MTCCD,Montana Cannabis Control Division,MT,Active,,Commercial - Retailer,,,,,,,,,,Juniper Naturals LLC,5174 Jackrabbit Ln,Gallatin County,59714,45.7461541,-111.1842637,https://www.junipercannabis.com/?utm_source=terrayn_gbp&utm_medium=organic&utm_campaign=belgrade,2023-04-24T21:19:46.235918
Belgrade,Adult Use,Natural Wellness LLC,(406) 539-5354,8,,MTCCD,Montana Cannabis Control Division,MT,Active,,Commercial - Retailer,,,,,,,,,,Natural Wellness LLC,5176 Jackrabbit Ln,Gallatin County,59714,45.746821,-111.18359,,2023-04-24T21:19:46.235918
Belgrade,Adult Use,Nomad Canna Belgrade Store,(406) 788-6173,9,,MTCCD,Montana Cannabis Control Division,MT,Active,,Commercial - Retailer,,,,,,,,,,Nomad Canna Belgrade Store,23 High K St ste b,Gallatin County,59714,45.7752343,-111.2273549,http://www.nomadcannamt.com/,2023-04-24T21:19:46.235918
Belgrade,Adult Use,Paradise Organics,(406) 220-0661,10,,MTCCD,Montana Cannabis Control Division,MT,Active,,Commercial - Retailer,,,,,,,,,,Paradise Organics,23 High K St D,Gallatin County,59714,45.7752192,-111.2274756,http://paradiseorganics.org/,2023-04-24T21:19:46.235918
Belgrade,Adult Use,Pure Remedies,(406) 660-0944,11,,MTCCD,Montana Cannabis Control Division,MT,Active,,Commercial - Retailer,,,,,,,,,,Pure Remedies,215 Arden Dr Unit 26,Gallatin County,59714,45.7817249,-111.1967683,http://pureremediesmt.com/,2023-04-24T21:19:46.235918
Belgrade,Adult Use,Wildfire Organics,(406) 580-1098,12,,MTCCD,Montana Cannabis Control Division,MT,Active,,Commercial - Retailer,,,,,,,,,,Wildfire Organics,,,,,,,2023-04-24T21:19:46.235918
Belt,Adult Use,Green Mountain Caregivers LLC,(406) 581-3754,13,,MTCCD,Montana Cannabis Control Division,MT,Active,,Commercial - Retailer,,,,,,,,,,Green Mountain Caregivers LLC,,,,,,,2023-04-24T21:19:46.235918
Big Sky,Adult Use,Greener Pastures,(831) 239-9028,14,,MTCCD,Montana Cannabis Control Division,MT,Active,,Commercial - Retailer,,,,,,,,,,Greener Pastures,120 Big Pine Dr #5,Gallatin County,59716,45.2595746,-111.312963,https://www.greenerpastures.com/green-pastures-big-sky-montana/,2023-04-24T21:19:46.235918
Big Sky,Adult Use,Honey Sour,(480) 842-0078,15,,MTCCD,Montana Cannabis Control Division,MT,Active,,Commercial - Retailer,,,,,,,,,,Honey Sour,12 Skywood Rd,Gallatin County,59716,45.2643771,-111.2933484,https://honeysour.com/,2023-04-24T21:19:46.235918
Big Sky,Adult Use,Jas Ventures Inc.,(406) 225-7390,16,,MTCCD,Montana Cannabis Control Division,MT,Active,,Commercial - Retailer,,,,,,,,,,Herbaceous Inc,77 Aspen Leaf Dr # 6,Gallatin County,59716,45.25922670000001,-111.3134631,http://www.herbaceousinc.com/,2023-04-24T21:19:46.235918
Big Sky,Adult Use,Lone Peak Caregivers,(386) 931-9334,17,,MTCCD,Montana Cannabis Control Division,MT,Active,,Commercial - Retailer,,,,,,,,,,Lone Peak Caregivers,115 Aspen Leaf Dr #1D,Gallatin County,59716,45.259037,-111.3128608,https://lonepeakcaregivers.net/,2023-04-24T21:19:46.235918
Big Sky,Adult Use,Lpc - Big Sky,(386) 931-9334,18,,MTCCD,Montana Cannabis Control Division,MT,Active,,Commercial - Retailer,,,,,,,,,,Lpc - Big Sky,115 Aspen Leaf Dr #1D,Gallatin County,59716,45.259037,-111.3128608,https://lonepeakcaregivers.net/,2023-04-24T21:19:46.235918
Big Timber,Medical Only,Michael Shirley,(206) 851-5295,19,,MTCCD,Montana Cannabis Control Division,MT,Active,,Commercial - Retailer,,,,,,,,,,Michael Shirley,,,,,,,2023-04-24T21:19:46.235918
Bigfork,Adult Use,420 Buds,(406) 249-5021,20,,MTCCD,Montana Cannabis Control Division,MT,Active,,Commercial - Retailer,,,,,,,,,,420 Buds,,,,,,,2023-04-24T21:19:46.235918
Bigfork,Adult Use,Beargrass Naturals,(805) 434-8764,21,,MTCCD,Montana Cannabis Control Division,MT,Active,,Commercial - Retailer,,,,,,,,,,Beargrass Naturals,8531 Montana Hwy 35,Flathead County,59911,48.0589263,-114.0764692,http://www.beargrassnaturals.com/,2023-04-24T21:19:46.235918
Bigfork,Adult Use,David V. Sandry,(406) 880-1234,22,,MTCCD,Montana Cannabis Control Division,MT,Active,,Commercial - Retailer,,,,,,,,,,Rocky Mountain,,,,,,,2023-04-24T21:19:46.235918
Bigfork,Adult Use,Firehouse 406,(406) 249-9090,24,,MTCCD,Montana Cannabis Control Division,MT,Active,,Commercial - Retailer,,,,,,,,,,Firehouse 406,7571 Montana Hwy 35,Flathead County,59911,48.0930877,-114.0878796,,2023-04-24T21:19:46.235918
Bigfork,Adult Use,Freedom Farms,(406) 314-8234,25,,MTCCD,Montana Cannabis Control Division,MT,Active,,Commercial - Retailer,,,,,,,,,,Freedom Farms,965 Swan River Rd,Flathead County,59911,48.0639075,-114.0211589,,2023-04-24T21:19:46.235918
Bigfork,Adult Use,Sugar Leaves,(406) 471-3129,26,,MTCCD,Montana Cannabis Control Division,MT,Active,,Commercial - Retailer,,,,,,,,,,Sugar Leaves,7984 Montana Hwy 35,Flathead County,59911,48.0777333,-114.0790862,http://www.sugarleavesmontana.com/,2023-04-24T21:19:46.235918
Bigfork,Adult Use,Sugar Tree Organics,(406) 261-7337,27,,MTCCD,Montana Cannabis Control Division,MT,Active,,Commercial - Retailer,,,,,,,,,,Sugar Tree Organics,8269 Montana Hwy 35,Flathead County,59911,48.0673536,-114.08039,,2023-04-24T21:19:46.235918
Bigfork,Adult Use,The Local Dispensary,(406) 314-3716,28,,MTCCD,Montana Cannabis Control Division,MT,Active,,Commercial - Retailer,,,,,,,,,,The Local Dispensary,7571 Montana Hwy 35,Flathead County,59911,48.0930877,-114.0878796,,2023-04-24T21:19:46.235918
Billings,Adult Use,312 Dispensary,(406) 690-5862,29,,MTCCD,Montana Cannabis Control Division,MT,Active,,Commercial - Retailer,,,,,,,,,,312 Dispensary,211 N 9th St Unit A,Yellowstone County,59101,45.7945573,-108.4832144,https://hwy312.immjpos.com/list,2023-04-24T21:19:46.235918
Billings,Adult Use,Big Sky Releaf,(562) 673-4311,30,,MTCCD,Montana Cannabis Control Division,MT,Active,,Commercial - Retailer,,,,,,,,,,Big Sky Releaf,1313 Grand Ave #8b,Yellowstone County,59102,45.7846743,-108.5502418,https://www.facebook.com/cbdreleaf.fb,2023-04-24T21:19:46.235918
Billings,Adult Use,Bloom,(406) 459-2618,31,,MTCCD,Montana Cannabis Control Division,MT,Active,,Commercial - Retailer,,,,,,,,,,Bloom,131 Brickyard Ln #5,Yellowstone County,59101,45.801944,-108.4496907,https://bloommt.com/location/marijuana-dispensary-billings?utm_source=terrayn_gbp&utm_medium=organic&utm_campaign=billings,2023-04-24T21:19:46.235918
Billings,Adult Use,B-Town Buds,(406) 670-6715,32,,MTCCD,Montana Cannabis Control Division,MT,Active,,Commercial - Retailer,,,,,,,,,,B-Town Buds,,,,,,,2023-04-24T21:19:46.235918
Billings,Adult Use,C4,(406) 671-4736,33,,MTCCD,Montana Cannabis Control Division,MT,Active,,Commercial - Retailer,,,,,,,,,,C4,1431 Old Hardin Rd,Yellowstone County,59101,45.7990513,-108.4485842,,2023-04-24T21:19:46.235918
Billings,Adult Use,Chronic Caregivers,(406) 672-8860,34,,MTCCD,Montana Cannabis Control Division,MT,Active,,Commercial - Retailer,,,,,,,,,,Chronic Caregivers,7534 Alderson Ave,Yellowstone County,59106,45.7828882,-108.7096791,http://chroniccaregiversmt.com/,2023-04-24T21:19:46.235918
Billings,Adult Use,Collective Elevation,(406) 794-9756,35,,MTCCD,Montana Cannabis Control Division,MT,Active,,Commercial - Retailer,,,,,,,,,,Collective Elevation,4949 Danford Dr,Yellowstone County,59106,45.7163827,-108.642884,https://www.collectiveelevationbillings.com/,2023-04-24T21:19:46.235918
Billings,Adult Use,Elevated LLC,(406) 855-0291,36,,MTCCD,Montana Cannabis Control Division,MT,Active,,Commercial - Retailer,,,,,,,,,,Elevated LLC,6522 S Frontage Rd,Yellowstone County,59101,45.7434234,-108.5790939,http://elevatedmt.com/,2023-04-24T21:19:46.235918
Billings,Medical Only,Enlighten LLC,(406) 661-5300,37,,MTCCD,Montana Cannabis Control Division,MT,Active,,Commercial - Retailer,,,,,,,,,,Enlighten LLC,1220 Avenue C E,Yellowstone County,59102,45.7856198,-108.547201,https://elevate-electrology-electrolysis-hair-removal-service.business.site/?utm_source=gmb&utm_medium=referral,2023-04-24T21:19:46.235918
Billings,Adult Use,Frosteez,(406) 850-5570,38,,MTCCD,Montana Cannabis Control Division,MT,Active,,Commercial - Retailer,,,,,,,,,,Frosteez,5055 Jellison Rd BLDG 3,Yellowstone County,59101,45.7272813,-108.5393536,http://www.frosteez.com/,2023-04-24T21:19:46.235918
Billings,Medical Only,Granite Peak Cannabis,(406) 670-4975,39,,MTCCD,Montana Cannabis Control Division,MT,Active,,Commercial - Retailer,,,,,,,,,,Granite Peak Cannabis,4028 Central Ave,Yellowstone County,59106,45.76925259999999,-108.6190064,https://www.granitepeakmt.com/,2023-04-24T21:19:46.235918
Billings,Adult Use,Granite Peak Distributing LLC,(406) 670-1333,40,,MTCCD,Montana Cannabis Control Division,MT,Active,,Commercial - Retailer,,,,,,,,,,Granite Peak Distributing LLC,4028 Central Ave,Yellowstone County,59106,45.76925259999999,-108.6190064,https://www.granitepeakmt.com/,2023-04-24T21:19:46.235918
Billings,Adult Use,Gvh Inc,(406) 201-0241,41,,MTCCD,Montana Cannabis Control Division,MT,Active,,Commercial - Retailer,,,,,,,,,,Gvh Inc,1151 28th St W,Yellowstone County,59102,45.7823135,-108.5860111,http://www.accessiblespace.org/grandview-apartments,2023-04-24T21:19:46.235918
Billings,Adult Use,Herb Doc,(406) 855-8906,42,,MTCCD,Montana Cannabis Control Division,MT,Active,,Commercial - Retailer,,,,,,,,,,Herb Doc,3028 S 53rd St W UNIT 5,Yellowstone County,59106,45.7131409,-108.6503753,https://herbdoc.us/,2023-04-24T21:19:46.235918
West,Adult Use,Billings High Mountain - Billings End,(406) 670-6325,43,,MTCCD,Montana Cannabis Control Division,MT,Active,,Commercial - Retailer,,,,,,,,,,Billings High Mountain - Billings End,7440 Entryway Dr,Yellowstone County,59101,45.7274809,-108.6036909,http://highmountainmt.com/,2023-04-24T21:19:46.235918
Billings,Adult Use,Holistic Relief By Design,(406) 860-1220,44,,MTCCD,Montana Cannabis Control Division,MT,Active,,Commercial - Retailer,,,,,,,,,,Holistic Relief By Design,2860 Old Hardin Rd D,Yellowstone County,59101,45.8136575,-108.4103656,https://holisticreliefbydesign.com/,2023-04-24T21:19:46.235918
Billings,Medical Only,Holy Grail Botanicals L.L.C.,(406) 702-0428,45,,MTCCD,Montana Cannabis Control Division,MT,Active,,Commercial - Retailer,,,,,,,,,,Holy Grail Botanicals L.L.C.,6143 Victoria Ln,Yellowstone County,59106,45.7530978,-108.6729866,http://holygrailbotanical.com/,2023-04-24T21:19:46.235918
Billings,Adult Use,Hometree,(406) 544-9135,46,,MTCCD,Montana Cannabis Control Division,MT,Active,,Commercial - Retailer,,,,,,,,,,Hometree,3044 Hesper Rd,Yellowstone County,59102,45.7404033,-108.5940761,http://hometreemt.com/,2023-04-24T21:19:46.235918
Billings,Adult Use,Ideal Naturals,(406) 861-9920,47,,MTCCD,Montana Cannabis Control Division,MT,Active,,Commercial - Retailer,,,,,,,,,,Ideal Naturals,316 Reynolds St,Yellowstone County,59101,45.80415780000001,-108.4400141,http://idealnaturalsmt.com/,2023-04-24T21:19:46.235918
Billings,Adult Use,Ideal Naturals LLC,(406) 601-1191,48,,MTCCD,Montana Cannabis Control Division,MT,Active,,Commercial - Retailer,,,,,,,,,,Ideal Naturals LLC,316 Reynolds St,Yellowstone County,59101,45.80415780000001,-108.4400141,http://idealnaturalsmt.com/,2023-04-24T21:19:46.235918
Billings,Adult Use,Kanopli,(406) 530-5041,49,,MTCCD,Montana Cannabis Control Division,MT,Active,,Commercial - Retailer,,,,,,,,,,Kanopli,,,,,,,2023-04-24T21:19:46.235918
Billings,Medical Only,Laughing Forest,(406) 697-8680,50,,MTCCD,Montana Cannabis Control Division,MT,Active,,Commercial - Retailer,,,,,,,,,,Laughing Forest,,,,,,,2023-04-24T21:19:46.235918
Billings,Adult Use,Lighthouse Organics  LLC,(406) 208-7927,51,,MTCCD,Montana Cannabis Control Division,MT,Active,,Commercial - Retailer,,,,,,,,,,Lighthouse Organics  LLC,2750 Old Hardin Rd Unit E,Yellowstone County,59101,45.8109529,-108.4165342,http://www.lighthouseorganicsmt.com/,2023-04-24T21:19:46.235918
Billings,Medical Only,Like A Fox Dispensary,(406) 274-0431,52,,MTCCD,Montana Cannabis Control Division,MT,Active,,Commercial - Retailer,,,,,,,,,,Like A Fox Dispensary,6400 S Frontage Rd,Yellowstone County,59101,45.7445907,-108.5767135,https://lionheartcannabis.com/,2023-04-24T21:19:46.235918
Billings,Adult Use,Lionheart Caregiving Billings,(406) 577-6932,53,,MTCCD,Montana Cannabis Control Division,MT,Active,,Commercial - Retailer,,,,,,,,,,Lionheart Caregiving Billings,6400 S Frontage Rd,Yellowstone County,59101,45.7445907,-108.5767135,https://lionheartcannabis.com/,2023-04-24T21:19:46.235918
Billings,Adult Use,Mac,(406) 698-7242,54,,MTCCD,Montana Cannabis Control Division,MT,Active,,Commercial - Retailer,,,,,,,,,,Mac,1101 Maggie Ln,Yellowstone County,59101,45.7496027,-108.5413582,https://www.maccannabis.com/,2023-04-24T21:19:46.235918
Billings,Adult Use,Magic City Releaf,(406) 598-1400,55,,MTCCD,Montana Cannabis Control Division,MT,Active,,Commercial - Retailer,,,,,,,,,,Magic City Releaf,6612 S Frontage Rd,Yellowstone County,59101,45.74217970000001,-108.5815202,https://magiccityreleaf.com/,2023-04-24T21:19:46.235918
Billings,Adult Use,Marimint LLC,(406) 396-1454,56,,MTCCD,Montana Cannabis Control Division,MT,Active,,Commercial - Retailer,,,,,,,,,,Marimint LLC,1415 S 32nd St W,Yellowstone County,59102,45.7454022,-108.5958459,https://marimintmt.com/,2023-04-24T21:19:46.235918
Billings,Adult Use,Medicine Creek Caregivers,(406) 551-5120,57,,MTCCD,Montana Cannabis Control Division,MT,Active,,Commercial - Retailer,,,,,,,,,,Medicine Creek Caregivers,1744 Mullowney Ln,Yellowstone County,59101,45.7375152,-108.556893,https://www.medicinecreekcaregivers.com/billings-dispensary?utm_source=terrayn_gbp&utm_medium=organic&utm_campaign=billings,2023-04-24T21:19:46.235918
Billings,Adult Use,Montana Advanced Caregivers,(406) 698-7242,58,,MTCCD,Montana Cannabis Control Division,MT,Active,,Commercial - Retailer,,,,,,,,,,Montana Advanced Caregivers,1101 Maggie Ln,Yellowstone County,59101,45.7496027,-108.5413582,https://www.maccannabis.com/,2023-04-24T21:19:46.235918
Billings,Adult Use,Montana Advanced Caregivers,(406) 656-0026,59,,MTCCD,Montana Cannabis Control Division,MT,Active,,Commercial - Retailer,,,,,,,,,,Montana Advanced Caregivers,1101 Maggie Ln,Yellowstone County,59101,45.7496027,-108.5413582,https://www.maccannabis.com/,2023-04-24T21:19:46.235918
Billings,Medical Only,Montana Flower Shoppe,(406) 794-5600,60,,MTCCD,Montana Cannabis Control Division,MT,Active,,Commercial - Retailer,,,,,,,,,,Montana Flower Shoppe,1848 Grand Ave,Yellowstone County,59102,45.78369989999999,-108.564041,https://www.magiccityfloral.com/,2023-04-24T21:19:46.235918
Billings,Adult Use,Montana Medicine Man,(406) 696-1812,61,,MTCCD,Montana Cannabis Control Division,MT,Active,,Commercial - Retailer,,,,,,,,,,Montana Medicine Man,1327 Main St,Yellowstone County,59105,45.8224347,-108.4697776,,2023-04-24T21:19:46.235918
Billings,Adult Use,Mountain Organics,(406) 839-3872,62,,MTCCD,Montana Cannabis Control Division,MT,Active,,Commercial - Retailer,,,,,,,,,,Mountain Organics,2405 S 70th St W,Yellowstone County,59106,45.7255894,-108.6939123,,2023-04-24T21:19:46.235918
Billings,Medical Only,My Buddies,(406) 794-4479,63,,MTCCD,Montana Cannabis Control Division,MT,Active,,Commercial - Retailer,,,,,,,,,,My Buddies,924 Pine Ridge Ln Apartment 4,Yellowstone County,59105,45.8461227,-108.4631347,http://dogtagbuddies.org/,2023-04-24T21:19:46.235918
Billings,Adult Use,Seed Of Life Labs,(406) 855-8204,64,,MTCCD,Montana Cannabis Control Division,MT,Active,,Commercial - Retailer,,,,,,,,,,Seed Of Life Labs,5702 Stearns Cir #1,Yellowstone County,59101,45.7369613,-108.5585262,https://www.seedoflifelabs.com/,2023-04-24T21:19:46.235918
Billings,Adult Use,Sensicare,(406) 794-8425,65,,MTCCD,Montana Cannabis Control Division,MT,Active,,Commercial - Retailer,,,,,,,,,,Sensicare,1020 Hannon Rd,Yellowstone County,59101,45.76053049999999,-108.495842,http://sensicaremt.com/,2023-04-24T21:19:46.235918
Billings,Adult Use,Stink Blossom,(406) 591-9233,66,,MTCCD,Montana Cannabis Control Division,MT,Active,,Commercial - Retailer,,,,,,,,,,Stink Blossom,1031 US-87,Yellowstone County,59101,45.79778229999999,-108.4590626,https://stinkblossom406.com/,2023-04-24T21:19:46.235918
Billings,Medical Only,That One Place,(406) 876-4930,67,,MTCCD,Montana Cannabis Control Division,MT,Active,,Commercial - Retailer,,,,,,,,,,That One Place,5055 Jellison Rd bldg 5,Yellowstone County,59101,45.7279445,-108.5380375,http://www.topthcmt.com/,2023-04-24T21:19:46.235918
Billings,Adult Use,The Green Bee,(406) 850-0461,68,,MTCCD,Montana Cannabis Control Division,MT,Active,,Commercial - Retailer,,,,,,,,,,The Green Bee,1644 S 48th St W,Yellowstone County,59106,45.7389425,-108.6384794,http://www.greenbeedispensary.com/,2023-04-24T21:19:46.235918
Billings,Adult Use,The Patch LLC,(406) 490-4273,69,,MTCCD,Montana Cannabis Control Division,MT,Active,,Commercial - Retailer,,,,,,,,,,The Patch LLC,5123 Jellison Rd,Yellowstone County,59101,45.7271805,-108.5425639,http://www.mtgrasspatch.com/,2023-04-24T21:19:46.235918
Billings,Adult Use,Uncle Bucks,(406) 670-2332,70,,MTCCD,Montana Cannabis Control Division,MT,Active,,Commercial - Retailer,,,,,,,,,,Uncle Bucks,206 Reynolds St,Yellowstone County,59101,45.8021342,-108.4398978,https://unclebucks420.com/,2023-04-24T21:19:46.235918
Yellowstone,Adult Use,Billings  Buds,(406) 600-7060,71,,MTCCD,Montana Cannabis Control Division,MT,Active,,Commercial - Retailer,,,,,,,,,,Billings  Buds,1310 U.S. Hwy 87 E,Yellowstone County,59101,45.7953469,-108.4519492,http://www.yellowstonebuds.com/,2023-04-24T21:19:46.235918
Yellowstone,Adult Use,Billings  Cannabis,(406) 794-7289,72,,MTCCD,Montana Cannabis Control Division,MT,Active,,Commercial - Retailer,,,,,,,,,,Billings  Cannabis,,,,,,,2023-04-24T21:19:46.235918
Black Eagle,Adult Use,Elevated Great Falls,(406) 855-0291,73,,MTCCD,Montana Cannabis Control Division,MT,Active,,Commercial - Retailer,,,,,,,,,,Elevated Great Falls,3313 15th St,Cascade County,59414,47.53597299999999,-111.2808369,http://www.elevatedmt.com/,2023-04-24T21:19:46.235918
Boulder,Adult Use,Bloom,(406) 459-2618,74,,MTCCD,Montana Cannabis Control Division,MT,Active,,Commercial - Retailer,,,,,,,,,,Bloom,102 Lenore Ln,Jefferson County,59632,46.2433038,-112.1176501,http://bloommt.com/,2023-04-24T21:19:46.235918
Box Elder,Adult Use,Green Achres LLC,(406) 879-6773,75,,MTCCD,Montana Cannabis Control Division,MT,Active,,Commercial - Retailer,,,,,,,,,,Green Achres LLC,,,,,,,2023-04-24T21:19:46.235918
Bozeman,Adult Use,710 Montana,(406) 209-2470,76,,MTCCD,Montana Cannabis Control Division,MT,Active,,Commercial - Retailer,,,,,,,,,,710 Montana,712 W Main St,Gallatin County,59715,45.67903800000001,-111.047281,http://710montana.com/,2023-04-24T21:19:46.235918
Bozeman,Adult Use,7Th Street Dispensary,(406) 551-0904,77,,MTCCD,Montana Cannabis Control Division,MT,Active,,Commercial - Retailer,,,,,,,,,,7Th Street Dispensary,1008 N 7th Ave suite D,Gallatin County,59715,45.6898765,-111.0452313,http://collectiveelevation.com/,2023-04-24T21:19:46.235918
Bozeman,Adult Use,Apogee Gardens Bozeman Dispensary,(406) 647-2128,78,,MTCCD,Montana Cannabis Control Division,MT,Active,,Commercial - Retailer,,,,,,,,,,Apogee Gardens Bozeman Dispensary,1119 N 7th Ave,Gallatin County,59715,45.6912917,-111.0468075,https://apogeegardens.com/,2023-04-24T21:19:46.235918
Bozeman,Adult Use,Big Sky Buds,(406) 763-1420,79,,MTCCD,Montana Cannabis Control Division,MT,Active,,Commercial - Retailer,,,,,,,,,,Big Sky Buds,81549 Gallatin Rd Unit 6,Gallatin County,59718,45.66617959999999,-111.1867294,http://bigskybuds.com/,2023-04-24T21:19:46.235918
Bozeman,Adult Use,Bighorn Buds,(406) 548-7312,80,,MTCCD,Montana Cannabis Control Division,MT,Active,,Commercial - Retailer,,,,,,,,,,Bighorn Buds,2304 W Main St Suite 4,Gallatin County,59718,45.6769659,-111.0678753,https://www.bighornbuds.com/,2023-04-24T21:19:46.235918
Bozeman,Adult Use,Bloom,(406) 459-2618,81,,MTCCD,Montana Cannabis Control Division,MT,Active,,Commercial - Retailer,,,,,,,,,,Bloom,875 Bridger Dr unit i,Gallatin County,59715,45.7032356,-111.0246887,http://bloomstudiomt.com/,2023-04-24T21:19:46.235918
Bozeman,Adult Use,Bozeman,(801) 350-1639,82,,MTCCD,Montana Cannabis Control Division,MT,Active,,Commercial - Retailer,,,,,,,,,,Bozeman,,,,,,,2023-04-24T21:19:46.235918
Bozeman,Adult Use,Bozeman 1,(406) 224-0238,83,,MTCCD,Montana Cannabis Control Division,MT,Active,,Commercial - Retailer,,,,,,,,,,Bozeman 1,630 Boardwalk Ave Suite 1,Gallatin County,59718,45.67328639999999,-111.1010208,https://www.lonepeakpt.com/locations/bozeman,2023-04-24T21:19:46.235918
Bozeman,Adult Use,Collective Elevation,(440) 488-0184,84,,MTCCD,Montana Cannabis Control Division,MT,Active,,Commercial - Retailer,,,,,,,,,,Collective Elevation,2230 W Main St,Gallatin County,59718,45.67672259999999,-111.0681989,http://www.collectiveelevation.com/,2023-04-24T21:19:46.235918
Bozeman,Adult Use,Connoisseur Pharms,(406) 599-2552,85,,MTCCD,Montana Cannabis Control Division,MT,Active,,Commercial - Retailer,,,,,,,,,,Connoisseur Pharms,81295 Gallatin Rd,Gallatin County,59718,45.6625981,-111.1866407,https://connoisseurpharms.com/,2023-04-24T21:19:46.235918
Bozeman,Adult Use,Double Dogs,(406) 224-0238,86,,MTCCD,Montana Cannabis Control Division,MT,Active,,Commercial - Retailer,,,,,,,,,,Double Dogs,331 Shepherd Trail A,Gallatin County,59718,45.66922539999999,-111.1953354,https://ddcanna.com/,2023-04-24T21:19:46.235918
Bozeman,Adult Use,Effective Discreet Caregiving,(406) 451-6899,87,,MTCCD,Montana Cannabis Control Division,MT,Active,,Commercial - Retailer,,,,,,,,,,Effective Discreet Caregiving,618 W Griffin Dr E,Gallatin County,59715,45.69971520000001,-111.045256,http://www.thinkhighercaregiving.com/,2023-04-24T21:19:46.235918
Bozeman,Adult Use,Elevated Bozeman,(406) 855-0291,88,,MTCCD,Montana Cannabis Control Division,MT,Active,,Commercial - Retailer,,,,,,,,,,Elevated Bozeman,611 W Main St,Gallatin County,59715,45.6795481,-111.0456134,http://www.elevatedmt.com/,2023-04-24T21:19:46.235918
Bozeman,Adult Use,Elevated Four Corners,(406) 855-0291,89,,MTCCD,Montana Cannabis Control Division,MT,Active,,Commercial - Retailer,,,,,,,,,,Elevated Four Corners,27 Pioneer Way,Gallatin County,59718,45.6732129,-111.1850634,https://elevatedmt.com/,2023-04-24T21:19:46.235918
Bozeman,Adult Use,Euphoria Wellness,(406) 577-2774,90,,MTCCD,Montana Cannabis Control Division,MT,Active,,Commercial - Retailer,,,,,,,,,,Euphoria Wellness,2503 Jackrabbit Ln,Gallatin County,59718,45.7071025,-111.1857945,,2023-04-24T21:19:46.235918
Bozeman,Adult Use,Gallatin Valley Organics,(406) 451-1616,91,,MTCCD,Montana Cannabis Control Division,MT,Active,,Commercial - Retailer,,,,,,,,,,Gallatin Valley Organics,103 S 8th Ave unit a,Gallatin County,59715,45.6781029,-111.0482401,http://gallatinvalleyorganics.com/,2023-04-24T21:19:46.235918
Bozeman,Adult Use,Ganja Goddess,(406) 451-4291,92,,MTCCD,Montana Cannabis Control Division,MT,Active,,Commercial - Retailer,,,,,,,,,,Ganja Goddess,2006 W Babcock St,Gallatin County,59718,45.6782239,-111.0643403,https://ganjagoddessmt.com/,2023-04-24T21:19:46.235918
Bozeman,Adult Use,Green Mountain Caregivers,(406) 581-3754,93,,MTCCD,Montana Cannabis Control Division,MT,Active,,Commercial - Retailer,,,,,,,,,,Green Mountain Caregivers,80127 Gallatin Rd Unit A,Gallatin County,59718,45.6471584,-111.1944874,http://www.greenmountaincaregivers.com/,2023-04-24T21:19:46.235918
Bozeman,Adult Use,Greener Pastures,(831) 239-9028,94,,MTCCD,Montana Cannabis Control Division,MT,Active,,Commercial - Retailer,,,,,,,,,,Greener Pastures,1009 W College St,Gallatin County,59715,45.6714618,-111.0511951,https://www.greenerpastures.com/,2023-04-24T21:19:46.235918
Bozeman,Adult Use,Grizzly Pine,(406) 599-3674,95,,MTCCD,Montana Cannabis Control Division,MT,Active,,Commercial - Retailer,,,,,,,,,,Grizzly Pine,512 N Broadway Ave,Gallatin County,59715,45.6845758,-111.0237441,http://grizzlypine.com/,2023-04-24T21:19:46.235918
Bozeman,Adult Use,Herbaceous Inc,(406) 220-1802,96,,MTCCD,Montana Cannabis Control Division,MT,Active,,Commercial - Retailer,,,,,,,,,,Herbaceous Inc,1582 Bobcat Dr,Gallatin County,59718,45.6706025,-111.1532074,https://herbaceousinc.com/?utm_source=terrayn_gbp&utm_medium=organic&utm_campaign=bozeman_herb,2023-04-24T21:19:46.235918
Bozeman,Adult Use,Honey Sour,(480) 842-0078,97,,MTCCD,Montana Cannabis Control Division,MT,Active,,Commercial - Retailer,,,,,,,,,,Honey Sour,1716 W Main St #3,Gallatin County,59715,45.67889879999999,-111.0605352,http://www.honeysour.com/,2023-04-24T21:19:46.235918
Bozeman,Adult Use,Ibex Of Bozeman,(406) 599-8558,98,,MTCCD,Montana Cannabis Control Division,MT,Active,,Commercial - Retailer,,,,,,,,,,Ibex Of Bozeman,97 Shepherd Trail #13,Gallatin County,59718,45.6694153,-111.1902282,,2023-04-24T21:19:46.235918
Bozeman,Adult Use,Jack Hudson,(406) 599-9584,99,,MTCCD,Montana Cannabis Control Division,MT,Active,,Commercial - Retailer,,,,,,,,,,Jack Hudson,,,,,,,2023-04-24T21:19:46.235918
Bozeman,Medical Only,Jones Holdings LLC,(406) 579-6956,100,,MTCCD,Montana Cannabis Control Division,MT,Active,,Commercial - Retailer,,,,,,,,,,Jones Holdings LLC,,,,,,,2023-04-24T21:19:46.235918
Bozeman,Medical Only,Jpdn LLC,(650) 996-1769,101,,MTCCD,Montana Cannabis Control Division,MT,Active,,Commercial - Retailer,,,,,,,,,,Jpdn LLC,,,,,,,2023-04-24T21:19:46.235918
Bozeman,Adult Use,Juniper Cannabis,(406) 600-2553,102,,MTCCD,Montana Cannabis Control Division,MT,Active,,Commercial - Retailer,,,,,,,,,,Juniper Cannabis,120 N Grand Ave,Gallatin County,59715,45.6811798,-111.0398573,https://www.junipercannabis.com/?utm_source=terrayn_gbp&utm_medium=organic&utm_campaign=bozeman,2023-04-24T21:19:46.235918
Bozeman,Adult Use,Last Best Cannabis,(406) 570-3241,103,,MTCCD,Montana Cannabis Control Division,MT,Active,,Commercial - Retailer,,,,,,,,,,Last Best Cannabis,100 Shepherd Trail STE 2,Gallatin County,59718,45.66865869999999,-111.1906143,https://www.lastbestcannabis.com/,2023-04-24T21:19:46.235918
Bozeman,Adult Use,Lazy Daze Cannabis,(406) 219-7420,104,,MTCCD,Montana Cannabis Control Division,MT,Active,,Commercial - Retailer,,,,,,,,,,Lazy Daze Cannabis,80127 Gallatin Rd,Gallatin County,59718,45.6471584,-111.1944874,https://lazydazecannabis.com/contact-us/,2023-04-24T21:19:46.235918
Bozeman,Adult Use,Lionheart Cannabis Pioneer Way,(406) 577-6932,105,,MTCCD,Montana Cannabis Control Division,MT,Active,,Commercial - Retailer,,,,,,,,,,Lionheart Cannabis Pioneer Way,29 Pioneer Way,Gallatin County,59718,45.6735545,-111.1850076,https://lionheartcannabis.com/,2023-04-24T21:19:46.235918
Bozeman,Adult Use,Lionheart International,(406) 577-6932,106,,MTCCD,Montana Cannabis Control Division,MT,Active,,Commercial - Retailer,,,,,,,,,,Lionheart International,1117 N 7th Ave #1,Gallatin County,59715,45.6912137,-111.0469665,https://lionheartcannabis.com/,2023-04-24T21:19:46.235918
Bozeman,Adult Use,Lone Peak Caregivers,(386) 931-9334,107,,MTCCD,Montana Cannabis Control Division,MT,Active,,Commercial - Retailer,,,,,,,,,,Lone Peak Caregivers,1525 N Rouse Ave,Gallatin County,59715,45.6955707,-111.0320905,https://lonepeakcannabiscompany.com/,2023-04-24T21:19:46.235918
Bozeman,Adult Use,Loud Smoke,(406) 570-8693,108,,MTCCD,Montana Cannabis Control Division,MT,Active,,Commercial - Retailer,,,,,,,,,,Loud Smoke,8300 Calico Dr UNIT C,Gallatin County,59718,45.6670944,-111.1561356,,2023-04-24T21:19:46.235918
Bozeman,Adult Use,Medcine Creek Caregivers - Bozeman,(612) 990-1072,109,,MTCCD,Montana Cannabis Control Division,MT,Active,,Commercial - Retailer,,,,,,,,,,Medcine Creek Caregivers - Bozeman,549 E Main St,Gallatin County,59715,45.6796914,-111.028792,http://medicinecreekcaregivers.com/,2023-04-24T21:19:46.235918
Bozeman,Adult Use,Montana Jane's Medicinals,(406) 599-5977,110,,MTCCD,Montana Cannabis Control Division,MT,Active,,Commercial - Retailer,,,,,,,,,,Montana Jane's Medicinals,340 Graves Trail Unit B,Gallatin County,59718,45.66709799999999,-111.1920176,http://www.montanajanes.com/,2023-04-24T21:19:46.235918
Bozeman,Adult Use,Montana Reserve Inc,(612) 810-5781,111,,MTCCD,Montana Cannabis Control Division,MT,Active,,Commercial - Retailer,,,,,,,,,,Montana Reserve Inc,8254 Huffine Ln,Gallatin County,59718,45.6703624,-111.1719749,http://mtreserve.com/,2023-04-24T21:19:46.235918
Bozeman,Adult Use,Montana Wildflower,(406) 539-9722,112,,MTCCD,Montana Cannabis Control Division,MT,Active,,Commercial - Retailer,,,,,,,,,,Montana Wildflower,15 Tai Ln Ste 11,Gallatin County,59715,45.663111,-111.054417,https://www.montanawildflower.com/,2023-04-24T21:19:46.235918
Bozeman,Adult Use,Mountain High,(406) 580-4150,113,,MTCCD,Montana Cannabis Control Division,MT,Active,,Commercial - Retailer,,,,,,,,,,Mountain High,51 Intrepid Dr,Gallatin County,59718,45.668181,-111.1346168,https://mountainhighllc.com/,2023-04-24T21:19:46.235918
Bozeman,Adult Use,Mtk  Inc.,(406) 465-2281,114,,MTCCD,Montana Cannabis Control Division,MT,Active,,Commercial - Retailer,,,,,,,,,,Mtk  Inc.,901 Woodland Dr,Gallatin County,59718,45.6889214,-111.0661075,http://mediaworksmt.com/,2023-04-24T21:19:46.235918
Bozeman,Adult Use,Natrapeutics,(406) 599-6941,115,,MTCCD,Montana Cannabis Control Division,MT,Active,,Commercial - Retailer,,,,,,,,,,Natrapeutics,618 W Griffin Dr suite h,Gallatin County,59715,45.6997331,-111.0452866,http://www.coldsmokeorganics.com/,2023-04-24T21:19:46.235918
Bozeman,Adult Use,Nature's Roots,(406) 551-5241,116,,MTCCD,Montana Cannabis Control Division,MT,Active,,Commercial - Retailer,,,,,,,,,,Nature's Roots,338 Graves Trail unit d,Gallatin County,59718,45.6673889,-111.1925811,https://www.natures-roots.com/,2023-04-24T21:19:46.235918
Bozeman,Adult Use,Ninepipe Organics,(406) 690-1467,117,,MTCCD,Montana Cannabis Control Division,MT,Active,,Commercial - Retailer,,,,,,,,,,Ninepipe Organics,100 Shepherd Trail STE 9,Gallatin County,59718,45.66865869999999,-111.1906143,http://ninepipeorganics.com/,2023-04-24T21:19:46.235918
Bozeman,Adult Use,Nomad Canna Bozeman Store,(406) 788-6173,118,,MTCCD,Montana Cannabis Control Division,MT,Active,,Commercial - Retailer,,,,,,,,,,Nomad Canna Bozeman Store,708 W Main St Unit 3,Gallatin County,59715,45.67902110000001,-111.0470675,http://www.nomadcannamt.com/,2023-04-24T21:19:46.235918
Bozeman,Adult Use,Northstar Evolution LLC,(406) 539-1184,119,,MTCCD,Montana Cannabis Control Division,MT,Active,,Commercial - Retailer,,,,,,,,,,Northstar Evolution LLC,152 Shepherd Trail Ste 9,Gallatin County,59718,45.6687422,-111.1914233,,2023-04-24T21:19:46.235918
Bozeman,Adult Use,Operation Green,(406) 224-2458,120,,MTCCD,Montana Cannabis Control Division,MT,Active,,Commercial - Retailer,,,,,,,,,,Operation Green,303 Shepherd Trail Unit 4,Gallatin County,59718,45.6694482,-111.1942027,,2023-04-24T21:19:46.235918
Bozeman,Adult Use,Organic Releaf,(406) 579-1774,121,,MTCCD,Montana Cannabis Control Division,MT,Active,,Commercial - Retailer,,,,,,,,,,Organic Releaf,80127 Gallatin Rd F,Gallatin County,59718,45.6471584,-111.1944874,,2023-04-24T21:19:46.235918
Bozeman,Adult Use,Sacred Sun Farms Inc.,(406) 580-4098,122,,MTCCD,Montana Cannabis Control Division,MT,Active,,Commercial - Retailer,,,,,,,,,,Sacred Sun Farms Inc.,323 Shepherd Trail Unit 12,Gallatin County,59718,45.66942969999999,-111.1945648,https://www.sacredsunfarms.com/,2023-04-24T21:19:46.235918
Bozeman,Adult Use,Shapan Enterprises LLC,(970) 946-7161,123,,MTCCD,Montana Cannabis Control Division,MT,Active,,Commercial - Retailer,,,,,,,,,,Shapan Enterprises LLC,,,,,,,2023-04-24T21:19:46.235918
Bozeman,Adult Use,Supherb Wellness,(406) 595-3611,124,,MTCCD,Montana Cannabis Control Division,MT,Active,,Commercial - Retailer,,,,,,,,,,Supherb Wellness,323 Shepherd Trail Suite 10,Gallatin County,59718,45.66945089999999,-111.195034,,2023-04-24T21:19:46.235918
Bozeman,Adult Use,Think Higher Caregiving  LLC,(603) 801-4456,125,,MTCCD,Montana Cannabis Control Division,MT,Active,,Commercial - Retailer,,,,,,,,,,Think Higher Caregiving  LLC,618 W Griffin Dr E,Gallatin County,59715,45.69971520000001,-111.045256,http://www.thinkhighercaregiving.com/,2023-04-24T21:19:46.235918
Bozeman,Adult Use,Think Higher Caregiving LLC,(603) 801-4456,126,,MTCCD,Montana Cannabis Control Division,MT,Active,,Commercial - Retailer,,,,,,,,,,Think Higher Caregiving LLC,618 W Griffin Dr E,Gallatin County,59715,45.69971520000001,-111.045256,http://www.thinkhighercaregiving.com/,2023-04-24T21:19:46.235918
Bozeman,Adult Use,Top Shelf Botanicals,(214) 310-6361,127,,MTCCD,Montana Cannabis Control Division,MT,Active,,Commercial - Retailer,,,,,,,,,,Top Shelf Botanicals,514 S 23rd Ave,Gallatin County,59718,45.6735115,-111.0668697,https://montana.topshelfbotanicals.com/bozeman/?utm_source=google&utm_medium=organic&utm_campaign=gmb&utm_content=Bozeman,2023-04-24T21:19:46.235918
Bozeman,Adult Use,Treasure Tree,(406) 370-0411,128,,MTCCD,Montana Cannabis Control Division,MT,Active,,Commercial - Retailer,,,,,,,,,,Treasure Tree,100 Shepherd Trail STE 4,Gallatin County,59718,45.6688892,-111.1906814,https://www.treasuretreemt.com/?utm_source=terrayn_gbp&utm_medium=organic&utm_campaign=bozeman_gbp,2023-04-24T21:19:46.235918
Bozeman,Adult Use,Yellowstone Buds,(406) 600-7060,129,,MTCCD,Montana Cannabis Control Division,MT,Active,,Commercial - Retailer,,,,,,,,,,Yellowstone Buds,50 Jackrabbit Ln,Gallatin County,59718,45.672291,-111.1851098,http://www.yellowstonebuds.com/,2023-04-24T21:19:46.235918
Bridger,Adult Use,Bridger- Sweetgrass,(406) 459-2618,130,,MTCCD,Montana Cannabis Control Division,MT,Active,,Commercial - Retailer,,,,,,,,,,Bridger- Sweetgrass,107 N Main St,Carbon County,59014,45.29611119999999,-108.9139603,http://sweetgrassmt.com/,2023-04-24T21:19:46.235918
Butte,Adult Use,710 Montana,(406) 209-2470,131,,MTCCD,Montana Cannabis Control Division,MT,Active,,Commercial - Retailer,,,,,,,,,,710 Montana,3103 Harrison Ave Suite B,Silver Bow County,59701,45.979671,-112.5085978,https://www.710montana.com/,2023-04-24T21:19:46.235918
Butte,Adult Use,Advancedalternativesllc,(406) 529-8863,132,,MTCCD,Montana Cannabis Control Division,MT,Active,,Commercial - Retailer,,,,,,,,,,Advancedalternativesllc,815 E Front St,Silver Bow County,59701,46.00182129999999,-112.5267672,https://advancedalternativesllc.com/,2023-04-24T21:19:46.235918
Butte,Adult Use,Apogee Gardens LLC,(406) 647-2128,133,,MTCCD,Montana Cannabis Control Division,MT,Active,,Commercial - Retailer,,,,,,,,,,Apogee Gardens LLC,123 N Main St,Silver Bow County,59701,46.0141983,-112.5361528,http://www.apogeegardens.com/,2023-04-24T21:19:46.235918
Butte,Adult Use,Bloom,(406) 459-2618,134,,MTCCD,Montana Cannabis Control Division,MT,Active,,Commercial - Retailer,,,,,,,,,,Bloom,2407 Harrison Ave,Silver Bow County,59701,45.9891716,-112.509798,https://bloommt.com/location/marijuana-dispensary-butte?utm_source=terrayn_gbp&utm_medium=organic&utm_campaign=butte,2023-04-24T21:19:46.235918
Butte,Adult Use,Burn,(406) 565-6010,135,,MTCCD,Montana Cannabis Control Division,MT,Active,,Commercial - Retailer,,,,,,,,,,Burn,1247 Harrison Ave,Silver Bow County,59701,46.00145759999999,-112.5224672,,2023-04-24T21:19:46.235918
Butte,Adult Use,Butte,(406) 224-0238,136,,MTCCD,Montana Cannabis Control Division,MT,Active,,Commercial - Retailer,,,,,,,,,,Butte,,,,,,,2023-04-24T21:19:46.235918
Butte,Adult Use,Collective Elevation Butte,(406) 498-3549,137,,MTCCD,Montana Cannabis Control Division,MT,Active,,Commercial - Retailer,,,,,,,,,,Collective Elevation Butte,34 E Galena St,Silver Bow County,59701,46.0120283,-112.5344126,https://collectiveelevation.com/butte/,2023-04-24T21:19:46.235918
Butte,Medical Only,Corner House,(406) 221-7421,138,,MTCCD,Montana Cannabis Control Division,MT,Active,,Commercial - Retailer,,,,,,,,,,Corner House,1877 Harrison Ave,Silver Bow County,59701,45.9951429,-112.5138713,,2023-04-24T21:19:46.235918
Butte,Adult Use,Elevated Butte,(406) 855-0291,139,,MTCCD,Montana Cannabis Control Division,MT,Active,,Commercial - Retailer,,,,,,,,,,Elevated Butte,2905 Harrison Ave,Silver Bow County,59701,45.9825159,-112.5086455,http://elevatedmt.com/,2023-04-24T21:19:46.235918
Butte,Adult Use,Ganja Goddess,(406) 451-4291,140,,MTCCD,Montana Cannabis Control Division,MT,Active,,Commercial - Retailer,,,,,,,,,,Ganja Goddess,3346 Harrison Ave,Silver Bow County,59701,45.9769719,-112.5077524,https://ganjagoddessmt.com/,2023-04-24T21:19:46.235918
Butte,Adult Use,Greenhouse LLC,(406) 565-7537,141,,MTCCD,Montana Cannabis Control Division,MT,Active,,Commercial - Retailer,,,,,,,,,,Greenhouse LLC,1250 Harrison Ave,Silver Bow County,59701,46.0026279,-112.521742,https://www.greenhousecaregiving.com/,2023-04-24T21:19:46.235918
Butte,Adult Use,High Altitude Gardens,(406) 533-5664,142,,MTCCD,Montana Cannabis Control Division,MT,Active,,Commercial - Retailer,,,,,,,,,,High Altitude Gardens,1842 Harrison Ave,Silver Bow County,59701,45.9960345,-112.5137214,https://www.highaltitudegardensmt.com/,2023-04-24T21:19:46.235918
Butte,Adult Use,High On The Hill,(208) 390-4465,143,,MTCCD,Montana Cannabis Control Division,MT,Active,,Commercial - Retailer,,,,,,,,,,High On The Hill,221 N Main St,Silver Bow County,59701,46.01509859999999,-112.536304,,2023-04-24T21:19:46.235918
Butte,Adult Use,Honey Sour,(480) 842-0078,144,,MTCCD,Montana Cannabis Control Division,MT,Active,,Commercial - Retailer,,,,,,,,,,Honey Sour,1210 Harrison Ave,Silver Bow County,59701,46.0025565,-112.5218225,https://honeysour.com/,2023-04-24T21:19:46.235918
Butte,Adult Use,Jas Ventures Inc.,(971) 221-7144,145,,MTCCD,Montana Cannabis Control Division,MT,Active,,Commercial - Retailer,,,,,,,,,,Herbaceous Inc,829 S Montana St,Silver Bow County,59701,46.0026392,-112.5394309,https://herbaceousinc.com/?utm_source=terrayn_gbp&utm_medium=organic&utm_campaign=butte_herb,2023-04-24T21:19:46.235918
Butte,Adult Use,Kannatonic,(406) 490-9383,146,,MTCCD,Montana Cannabis Control Division,MT,Active,,Commercial - Retailer,,,,,,,,,,Kannatonic,1635 Harrison Ave,Silver Bow County,59701,45.99837549999999,-112.5161196,http://kannatonicbutte.com/,2023-04-24T21:19:46.235918
Butte,Adult Use,Lionheart Cannabis Butte,(406) 577-6932,147,,MTCCD,Montana Cannabis Control Division,MT,Active,,Commercial - Retailer,,,,,,,,,,Lionheart Cannabis Butte,3305 Monroe Ave,Silver Bow County,59701,45.9772421,-112.5072092,https://lionheartcannabis.com/,2023-04-24T21:19:46.235918
Butte,Adult Use,"Lycon, LLC",(406) 498-1778,148,,MTCCD,Montana Cannabis Control Division,MT,Active,,Commercial - Retailer,,,,,,,,,,"Lycon, LLC",111 S Parkmont,Silver Bow County,59701,45.925883,-112.5113754,http://allinoneco.com/,2023-04-24T21:19:46.235918
Butte,Adult Use,Medicine Creek Caregivers,(406) 404-5625,149,,MTCCD,Montana Cannabis Control Division,MT,Active,,Commercial - Retailer,,,,,,,,,,Medicine Creek Caregivers,33 W Park St,Silver Bow County,59701,46.0129318,-112.5366973,http://medicinecreekcaregivers.com/,2023-04-24T21:19:46.235918
Butte,Adult Use,Natural Welleness LLC,(406) 539-5354,150,,MTCCD,Montana Cannabis Control Division,MT,Active,,Commercial - Retailer,,,,,,,,,,Natural Welleness LLC,2501 Harrison Ave # A,Silver Bow County,59701,45.988569,-112.5092017,,2023-04-24T21:19:46.235918
Butte,Adult Use,Silverbow Cannabis,(406) 580-1839,151,,MTCCD,Montana Cannabis Control Division,MT,Active,,Commercial - Retailer,,,,,,,,,,Silverbow Cannabis,2055 Harrison Ave,Silver Bow County,59701,45.9924885,-112.512144,https://www.silverbowcannabis.com/,2023-04-24T21:19:46.235918
Butte,Adult Use,Silverleaf,(970) 708-7015,152,,MTCCD,Montana Cannabis Control Division,MT,Active,,Commercial - Retailer,,,,,,,,,,Silverleaf,16 N Montana St,Silver Bow County,59701,46.0131137,-112.5391332,https://silverleaf406.com/,2023-04-24T21:19:46.235918
Butte,Adult Use,Soultonix,(406) 577-2774,153,,MTCCD,Montana Cannabis Control Division,MT,Active,,Commercial - Retailer,,,,,,,,,,Soultonix,1210 Harrison Ave,Silver Bow County,59701,46.0025565,-112.5218225,https://honeysour.com/,2023-04-24T21:19:46.235918
Butte,Adult Use,The Higher Standard Butte,(406) 594-5457,154,,MTCCD,Montana Cannabis Control Division,MT,Active,,Commercial - Retailer,,,,,,,,,,The Higher Standard Butte,3215 Harrison Ave,Silver Bow County,59701,45.978282,-112.5086017,https://thehigherstandard406.com/,2023-04-24T21:19:46.235918
Butte,Adult Use,Top Shelf Botanicals,(214) 310-6361,155,,MTCCD,Montana Cannabis Control Division,MT,Active,,Commercial - Retailer,,,,,,,,,,Top Shelf Botanicals,3350 Harrison Ave,Silver Bow County,59701,45.97670689999999,-112.5077104,https://montana.topshelfbotanicals.com/butte/?utm_source=google&utm_medium=organic&utm_campaign=gmb&utm_content=Butte,2023-04-24T21:19:46.235918
Cardwell,Adult Use,Top Shelf Botanicals,(214) 310-6361,156,,MTCCD,Montana Cannabis Control Division,MT,Active,,Commercial - Retailer,,,,,,,,,,Top Shelf Botanicals,279 Frontage Rd,Gallatin County,59752,45.9010694,-111.5429007,https://montana.topshelfbotanicals.com/three-forks/,2023-04-24T21:19:46.235918
Clinton,Medical Only,Funk Farm,(701) 202-8652,157,,MTCCD,Montana Cannabis Control Division,MT,Active,,Commercial - Retailer,,,,,,,,,,Funk Farm,20505 E Mullan Rd,Missoula County,59825,46.7671394,-113.7121505,,2023-04-24T21:19:46.235918
Clinton,Medical Only,Holistic Harvest Cannabis Farms LLC,(406) 370-7923,158,,MTCCD,Montana Cannabis Control Division,MT,Active,,Commercial - Retailer,,,,,,,,,,Holistic Harvest Cannabis Farms LLC,12370 US Hwy 10 E,Missoula County,59825,46.8353759,-113.8245783,,2023-04-24T21:19:46.235918
Clinton,Adult Use,Mc Courier,(406) 207-1799,159,,MTCCD,Montana Cannabis Control Division,MT,Active,,Commercial - Retailer,,,,,,,,,,Mc Courier,,,,,,,2023-04-24T21:19:46.235918
Columbia Falls,Adult Use,Big Mountain Botanicals LLC,(406) 250-8493,160,,MTCCD,Montana Cannabis Control Division,MT,Active,,Commercial - Retailer,,,,,,,,,,Big Mountain Botanicals LLC,36 Jellison Ln unit c,Flathead County,59912,48.3268358,-114.239323,https://www.bigmountainbotanicals.com/,2023-04-24T21:19:46.235918
Columbia Falls,Adult Use,Fruit Factory Inc,(435) 668-4387,161,,MTCCD,Montana Cannabis Control Division,MT,Active,,Commercial - Retailer,,,,,,,,,,Fruit Factory Inc,207 9th St W,Flathead County,59912,48.3709068,-114.1841506,http://www.thefruitfactorymt.com/,2023-04-24T21:19:46.235918
West,Adult Use,Columbia Falls Northalternative Medicine,(406) 407-2930,162,,MTCCD,Montana Cannabis Control Division,MT,Active,,Commercial - Retailer,,,,,,,,,,Columbia Falls Northalternative Medicine,3858,,Falls,48.3700316,-114.1918311,https://alpinefamilymedicine.business.site/,2023-04-24T21:19:46.235918
Columbia Falls,Adult Use,Terpene Time Extracts,(406) 885-3770,163,,MTCCD,Montana Cannabis Control Division,MT,Active,,Commercial - Retailer,,,,,,,,,,Terpene Time Extracts,7358 Hwy 2 E,Flathead County,59912,48.3665262,-114.1455008,http://www.myterpenetime.com/,2023-04-24T21:19:46.235918
Columbia Falls,Adult Use,The Higher Standard Columbia Fall,(406) 594-5457,164,,MTCCD,Montana Cannabis Control Division,MT,Active,,Commercial - Retailer,,,,,,,,,,The Higher Standard Columbia Fall,1615 9th St W,Flathead County,59912,48.371238,-114.2030736,https://bloommt.com/menu/columbia-falls?utm_source=terrayn_gbp&utm_medium=organic&utm_campaign=columbia_falls,2023-04-24T21:19:46.235918
Columbia Fls,Adult Use,Bud Factory,(406) 885-0188,165,,MTCCD,Montana Cannabis Control Division,MT,Active,,Commercial - Retailer,,,,,,,,,,Bud Factory,7356 Hwy 2 E,Flathead County,59912,48.3663919,-114.145547,http://www.budfactory406.com/,2023-04-24T21:19:46.235918
Columbia Fls,Adult Use,Ember,(406) 404-6470,166,,MTCCD,Montana Cannabis Control Division,MT,Active,,Commercial - Retailer,,,,,,,,,,Ember,519 Nucleus Ave,Flathead County,59912,48.3737131,-114.1809731,http://www.embermt.com/,2023-04-24T21:19:46.235918
Columbia Fls,Adult Use,Kgi,(406) 253-2863,167,,MTCCD,Montana Cannabis Control Division,MT,Active,,Commercial - Retailer,,,,,,,,,,Kgi,100 Columbia Mountain Dr STE 2,Flathead County,59912,48.3504914,-114.2415286,http://kinggreenindustries.com/,2023-04-24T21:19:46.235918
Columbus,Medical Only,Bloom,(406) 459-2618,168,,MTCCD,Montana Cannabis Control Division,MT,Active,,Commercial - Retailer,,,,,,,,,,Bloom,630 E 6th Ave N,Stillwater County,59019,45.642678,-109.2487225,http://bloommt.com/,2023-04-24T21:19:46.235918
Columbus,Medical Only,Triggers Relief LLC,(406) 426-4446,169,,MTCCD,Montana Cannabis Control Division,MT,Active,,Commercial - Retailer,,,,,,,,,,Triggers Relief LLC,,,,,,,2023-04-24T21:19:46.235918
Corvallis,Adult Use,Davis Family Farms  Inc,(406) 360-5543,170,,MTCCD,Montana Cannabis Control Division,MT,Active,,Commercial - Retailer,,,,,,,,,,Davis Family Farms  Inc,4380 NE Hwy 20,Benton County,97330,44.6062507,-123.2201945,,2023-04-24T21:19:46.235918
Culbertson,Adult Use,Magic Cityreleaf,(406) 598-1400,171,,MTCCD,Montana Cannabis Control Division,MT,Active,,Commercial - Retailer,,,,,,,,,,Magic Cityreleaf,703 6th St E,Roosevelt County,59218,48.1488747,-104.5084936,https://magiccityreleaf.com/,2023-04-24T21:19:46.235918
Cut Bank,Adult Use,Green Acres,(406) 879-6773,172,,MTCCD,Montana Cannabis Control Division,MT,Active,,Commercial - Retailer,,,,,,,,,,Green Acres,,,,,,,2023-04-24T21:19:46.235918
Cut Bank,Adult Use,Mommaz Enterprises,(406) 249-7270,173,,MTCCD,Montana Cannabis Control Division,MT,Active,,Commercial - Retailer,,,,,,,,,,Mommaz Enterprises,25828 U.S. Rte 2 E,Glacier County,59427,48.6096626,-112.2758163,http://mommazdispensary.com/,2023-04-24T21:19:46.235918
Dillon,Medical Only,D&L's Sweetwater Goods,(406) 925-0613,174,,MTCCD,Montana Cannabis Control Division,MT,Active,,Commercial - Retailer,,,,,,,,,,D&L's Sweetwater Goods,1030 Selway Dr,Beaverhead County,59725,45.2306632,-112.6268234,,2023-04-24T21:19:46.235918
Dillon,Medical Only,The Higher Standard,(406) 925-9415,175,,MTCCD,Montana Cannabis Control Division,MT,Active,,Commercial - Retailer,,,,,,,,,,The Higher Standard,449 1/2 N Montana St,Beaverhead County,59725,45.22175079999999,-112.6330852,https://www.thehigherstandard406.com/,2023-04-24T21:19:46.235918
East Glacier Pa,Adult Use,Rk East Glacier,(406) 879-6773,176,,MTCCD,Montana Cannabis Control Division,MT,Active,,Commercial - Retailer,,,,,,,,,,Rk East Glacier,402 U.S. Rte 2,Glacier County,59434,48.4420174,-113.2180111,http://www.circlermotelmt.com/,2023-04-24T21:19:46.235918
Helena,Adult Use,East  Bloom,(406) 459-2618,177,,MTCCD,Montana Cannabis Control Division,MT,Active,,Commercial - Retailer,,,,,,,,,,East  Bloom,3704 E Main St,Lewis and Clark County,59635,46.58870059999999,-111.899782,http://bloommt.com/,2023-04-24T21:19:46.235918
Elliston,Medical Only,Manic Farming,(406) 565-3220,178,,MTCCD,Montana Cannabis Control Division,MT,Active,,Commercial - Retailer,,,,,,,,,,Manic Farming,397 Willoughby Ln,Ravalli County,59870,46.4409899,-114.0846363,https://bell-crossing-farms.business.site/?utm_source=gmb&utm_medium=referral,2023-04-24T21:19:46.235918
Ennis,Adult Use,Lpc - Ennis,(386) 931-9334,179,,MTCCD,Montana Cannabis Control Division,MT,Active,,Commercial - Retailer,,,,,,,,,,Lpc - Ennis,222 Main St #1-E,Madison County,59729,45.34912200000001,-111.7272884,http://www.ldcounselingservices.com/,2023-04-24T21:19:46.235918
Ennis,Adult Use,Medicine Creek Caregivers,(406) 551-5120,180,,MTCCD,Montana Cannabis Control Division,MT,Active,,Commercial - Retailer,,,,,,,,,,Medicine Creek Caregivers,5078 US-287,Madison County,59729,45.373203,-111.7286618,http://medicinecreekcaregivers.com/,2023-04-24T21:19:46.235918
Ennis,Adult Use,Top Shelf Botanicals,(270) 996-7502,181,,MTCCD,Montana Cannabis Control Division,MT,Active,,Commercial - Retailer,,,,,,,,,,Top Shelf Botanicals,219 E Main St,Madison County,59729,45.3485389,-111.7275134,https://montana.topshelfbotanicals.com/ennis/?utm_source=google&utm_medium=organic&utm_campaign=gmb&utm_content=Ennis,2023-04-24T21:19:46.235918
Eureka,Adult Use,Area93 Dispensary,(406) 212-8856,182,,MTCCD,Montana Cannabis Control Division,MT,Active,,Commercial - Retailer,,,,,,,,,,Area93 Dispensary,113 Dewey Ave,Lincoln County,59917,48.87940969999999,-115.0530208,http://area93dispensary.com/,2023-04-24T21:19:46.235918
Eureka,Adult Use,Awesome Blossoms Mt,(406) 945-7511,183,,MTCCD,Montana Cannabis Control Division,MT,Active,,Commercial - Retailer,,,,,,,,,,Awesome Blossoms Mt,726 US-93,Lincoln County,59917,48.89355339999999,-115.0560668,https://awesomeblossomsmt.com/,2023-04-24T21:19:46.235918
Eureka,Adult Use,Bloominati,(406) 871-5776,184,,MTCCD,Montana Cannabis Control Division,MT,Active,,Commercial - Retailer,,,,,,,,,,Bloominati,,,,,,,2023-04-24T21:19:46.235918
Eureka,Medical Only,N8's Nuggz N Such,(406) 291-2349,185,,MTCCD,Montana Cannabis Control Division,MT,Active,,Commercial - Retailer,,,,,,,,,,N8's Nuggz N Such,238 US-93,Lincoln County,59917,48.8662597,-115.0324988,,2023-04-24T21:19:46.235918
Florence,Adult Use,710 Montana,(406) 209-2470,186,,MTCCD,Montana Cannabis Control Division,MT,Active,,Commercial - Retailer,,,,,,,,,,710 Montana,5501 HWY 93 N Suite #5,Ravalli County,59833,46.6326208,-114.0788803,http://www.710montana.com/,2023-04-24T21:19:46.235918
Florence,Medical Only,Family Farms,(406) 465-4555,187,,MTCCD,Montana Cannabis Control Division,MT,Active,,Commercial - Retailer,,,,,,,,,,Family Farms,21749 5 Wounds Way,Ravalli County,59833,46.661891,-114.060896,https://www.bigskylavender.com/,2023-04-24T21:19:46.235918
Florence,Adult Use,Mountain Herbs,(406) 529-2250,188,,MTCCD,Montana Cannabis Control Division,MT,Active,,Commercial - Retailer,,,,,,,,,,Mountain Herbs,5449 US-93 suite 2,Ravalli County,59833,46.6290929,-114.0818379,,2023-04-24T21:19:46.235918
Fort Benton,Medical Only,Fat Hippie,(406) 459-2618,189,,MTCCD,Montana Cannabis Control Division,MT,Active,,Commercial - Retailer,,,,,,,,,,Fat Hippie,811 14th St,Chouteau County,59442,47.8170605,-110.6691785,http://www.fathippie.net/,2023-04-24T21:19:46.235918
Fortine,Medical Only,Glacier Pollen,(801) 721-1737,190,,MTCCD,Montana Cannabis Control Division,MT,Active,,Commercial - Retailer,,,,,,,,,,Glacier Pollen,205 1st St S,Lincoln County,59918,48.76276619999999,-114.9040529,http://glacierpollen.com/,2023-04-24T21:19:46.235918
Frenchtown,Medical Only,Tr2 LLC,(425) 999-7441,191,,MTCCD,Montana Cannabis Control Division,MT,Active,,Commercial - Retailer,,,,,,,,,,Tr2 LLC,,,,,,,2023-04-24T21:19:46.235918
Gallatin Gtwy,Adult Use,Double Dogs,(406) 224-0238,192,,MTCCD,Montana Cannabis Control Division,MT,Active,,Commercial - Retailer,,,,,,,,,,Double Dogs,1620 Nashville Pike,Sumner County,37066,36.3562585,-86.50467700000002,http://www.doubledogs.biz/gallatin,2023-04-24T21:19:46.235918
Gallatin Gtwy,Adult Use,Mountain Medicine,(406) 589-7200,193,,MTCCD,Montana Cannabis Control Division,MT,Active,,Commercial - Retailer,,,,,,,,,,Mountain Medicine,76370 Gallatin Rd,Gallatin County,59730,45.5924342,-111.1957738,,2023-04-24T21:19:46.235918
Gallatin Gtwy,Adult Use,Mtk  Inc.,(406) 465-2281,194,,MTCCD,Montana Cannabis Control Division,MT,Active,,Commercial - Retailer,,,,,,,,,,Mtk  Inc.,74200 Gallatin Rd,Gallatin County,59730,45.56056209999999,-111.1972961,https://montanakush.com/,2023-04-24T21:19:46.235918
Glasgow,Adult Use,Cannaorganics  LLC,(406) 263-8057,195,,MTCCD,Montana Cannabis Control Division,MT,Active,,Commercial - Retailer,,,,,,,,,,Cannaorganics  LLC,54315 U.S. Rte 2,Valley County,59230,48.1902139,-106.6080479,http://www.cannaorganics.net/contact-us-or-find-us.html,2023-04-24T21:19:46.235918
Glasgow,Adult Use,Wild Sky Farms,(406) 783-7270,196,,MTCCD,Montana Cannabis Control Division,MT,Active,,Commercial - Retailer,,,,,,,,,,Wild Sky Farms,54336 U.S. Rte 2,Valley County,59230,48.188775,-106.6033431,http://www.montanawildskyfarms.com/,2023-04-24T21:19:46.235918
Glendive,Medical Only,Armadillo Buds,(406) 941-0791,197,,MTCCD,Montana Cannabis Control Division,MT,Active,,Commercial - Retailer,,,,,,,,,,Armadillo Buds,184 MT-200S,Dawson County,59330,47.10328069999999,-104.7860571,,2023-04-24T21:19:46.235918
Glendive,Adult Use,Bloom,(406) 459-2618,198,,MTCCD,Montana Cannabis Control Division,MT,Active,,Commercial - Retailer,,,,,,,,,,Bloom,13 MT-16,Dawson County,59330,47.1082808,-104.7360195,https://bloommt.com/location/marijuana-dispensary-glendive?utm_source=terrayn_gbp&utm_medium=organic&utm_campaign=glendive,2023-04-24T21:19:46.235918
Glendive,Medical Only,Khm,(315) 730-5178,199,,MTCCD,Montana Cannabis Control Division,MT,Active,,Commercial - Retailer,,,,,,,,,,Khm,,,,,,,2023-04-24T21:19:46.235918
Glendive,Adult Use,Sacred Sun Farms Inc.,(406) 580-4098,200,,MTCCD,Montana Cannabis Control Division,MT,Active,,Commercial - Retailer,,,,,,,,,,Sacred Sun Farms Inc.,727 O Neil St A,Dawson County,59330,47.1076468,-104.731074,http://www.sacredsunfarms.com/,2023-04-24T21:19:46.235918
Glendive,Adult Use,Seed Of Life Labs LLC,(406) 855-8204,201,,MTCCD,Montana Cannabis Control Division,MT,Active,,Commercial - Retailer,,,,,,,,,,Seed Of Life Labs LLC,1716 Crisafulli Dr,Dawson County,59330,47.1057102,-104.7413949,http://seedoflifelabs.com/,2023-04-24T21:19:46.235918
Great Falls,Adult Use,Great Falls,(406) 403-8109,202,,MTCCD,Montana Cannabis Control Division,MT,Active,,Commercial - Retailer,,,,,,,,,,Great Falls,,,,,,,2023-04-24T21:19:46.235918
Great Falls,Adult Use,Great Northern Dispensary,(406) 333-3000,203,,MTCCD,Montana Cannabis Control Division,MT,Active,,Commercial - Retailer,,,,,,,,,,Great Northern Dispensary,2108 52nd St N,Cascade County,59405,47.5282278,-111.2221572,https://www.leafly.com/dispensaries?filter=pickup,2023-04-24T21:19:46.235918
Great Falls,Adult Use,Green Creek,(406) 750-7152,204,,MTCCD,Montana Cannabis Control Division,MT,Active,,Commercial - Retailer,,,,,,,,,,Green Creek,55 Gibson Flats Rd Unit #4,Cascade County,59405,47.47355899999999,-111.250468,,2023-04-24T21:19:46.235918
Great Falls,Adult Use,Holistic Releaf By Design,(406) 860-1220,205,,MTCCD,Montana Cannabis Control Division,MT,Active,,Commercial - Retailer,,,,,,,,,,Holistic Releaf By Design,6 Black Eagle Rd,Cascade County,59404,47.56194439999999,-111.2613586,https://holisticreliefbydesign.com/,2023-04-24T21:19:46.235918
Great Falls,Adult Use,Infinity Wellness Dispensary,(406) 600-1266,206,,MTCCD,Montana Cannabis Control Division,MT,Active,,Commercial - Retailer,,,,,,,,,,Infinity Wellness Dispensary,2108 52nd St N Unit 2,Cascade County,59405,47.5282278,-111.2221572,https://www.infinitywellnessmt.com/,2023-04-24T21:19:46.235918
Great Falls,Adult Use,Lionheart International,(406) 577-6932,207,,MTCCD,Montana Cannabis Control Division,MT,Active,,Commercial - Retailer,,,,,,,,,,Lionheart International,10 Black Eagle Rd,Cascade County,59404,47.5612335,-111.2613143,https://lionheartcannabis.com/,2023-04-24T21:19:46.235918
Great Falls,Adult Use,Marimart Great Falls,(406) 396-1454,208,,MTCCD,Montana Cannabis Control Division,MT,Active,,Commercial - Retailer,,,,,,,,,,Marimart Great Falls,183 Black Eagle Rd,Cascade County,59404,47.5381711,-111.263448,http://marimintmt.com/,2023-04-24T21:19:46.235918
Great Falls,Adult Use,Montana Dispensary,(406) 219-7220,209,,MTCCD,Montana Cannabis Control Division,MT,Active,,Commercial - Retailer,,,,,,,,,,Montana Dispensary,2000 52nd St N,Cascade County,59405,47.5262908,-111.2226638,https://mtdispensary.net/,2023-04-24T21:19:46.235918
Great Falls,Adult Use,Rocky Mountain Remedies,(406) 402-7171,210,,MTCCD,Montana Cannabis Control Division,MT,Active,,Commercial - Retailer,,,,,,,,,,Rocky Mountain Remedies,4725 22nd Ave N,Cascade County,59405,47.5287284,-111.226448,https://www.leafly.com/dispensaries?filter=pickup,2023-04-24T21:19:46.235918
Hamilton,Adult Use,Denots  LLC,(406) 531-3608,211,,MTCCD,Montana Cannabis Control Division,MT,Active,,Commercial - Retailer,,,,,,,,,,Denots  LLC,1986 N 1st St,Ravalli County,59840,46.27258,-114.1577294,http://www.denotsdispensary.com/,2023-04-24T21:19:46.235918
Hamilton,Adult Use,Euphoria Wellness,(406) 577-2774,212,,MTCCD,Montana Cannabis Control Division,MT,Active,,Commercial - Retailer,,,,,,,,,,Euphoria Wellness,128 Birch St,Ravalli County,59840,46.25008239999999,-114.1530131,,2023-04-24T21:19:46.235918
Hamilton,Adult Use,The Flower Shop,(406) 241-1736,213,,MTCCD,Montana Cannabis Control Division,MT,Active,,Commercial - Retailer,,,,,,,,,,The Flower Shop,302 N 1st St Suite 2,Ravalli County,59840,46.2491225,-114.1554402,https://flowerhappyfloral.com/,2023-04-24T21:19:46.235918
Hamilton,Adult Use,Treasured State Farm  LLC,(406) 361-5870,214,,MTCCD,Montana Cannabis Control Division,MT,Active,,Commercial - Retailer,,,,,,,,,,Treasured State Farm  LLC,140 Grantsdale Cutoff Rd,Ravalli County,59840,46.204505,-114.151607,,2023-04-24T21:19:46.235918
Hardin,Adult Use,312 Cannabis Hardin,(406) 690-5862,215,,MTCCD,Montana Cannabis Control Division,MT,Active,,Commercial - Retailer,,,,,,,,,,312 Cannabis Hardin,1821 Vanzandt Rd,Big Horn County,59034,45.7363834,-107.6509519,https://hwy312.immjpos.com/list,2023-04-24T21:19:46.235918
Hardin,Adult Use,Bloom,(406) 459-2618,216,,MTCCD,Montana Cannabis Control Division,MT,Active,,Commercial - Retailer,,,,,,,,,,Bloom,569 3rd St E,Big Horn County,59034,45.735003,-107.5967527,http://www.bloommt.com/,2023-04-24T21:19:46.235918
Harlem,Adult Use,Harlem Location,(406) 879-6773,217,,MTCCD,Montana Cannabis Control Division,MT,Active,,Commercial - Retailer,,,,,,,,,,Harlem Location,,,,,,,2023-04-24T21:19:46.235918
Hathaway,Adult Use,High Mountain - Hathaway,(406) 670-6325,218,,MTCCD,Montana Cannabis Control Division,MT,Active,,Commercial - Retailer,,,,,,,,,,High Mountain - Hathaway,420 Mary Jane Lane,Rosebud County,59333,46.2765194,-106.1948238,http://www.highmountainmt.com/,2023-04-24T21:19:46.235918
Havre,Adult Use,Bloom,(406) 459-2618,219,,MTCCD,Montana Cannabis Control Division,MT,Active,,Commercial - Retailer,,,,,,,,,,Bloom,2400 2nd St W,Hill County,59501,48.5555716,-109.7213542,https://bloommt.com/location/marijuana-dispensary-harve?utm_source=terrayn_gbp&utm_medium=organic&utm_campaign=harve,2023-04-24T21:19:46.235918
Havre,Adult Use,Dancing Goat Gardens,(406) 218-0077,220,,MTCCD,Montana Cannabis Control Division,MT,Active,,Commercial - Retailer,,,,,,,,,,Dancing Goat Gardens,2385 U.S. Rte 2,Hill County,59501,48.5594787,-109.6500244,https://www.dancinggoatgardens.com/,2023-04-24T21:19:46.235918
Havre,Adult Use,Montana Green Realeaf,(406) 399-6573,221,,MTCCD,Montana Cannabis Control Division,MT,Active,,Commercial - Retailer,,,,,,,,,,Montana Green Realeaf,431 5th St N,Hill County,59501,48.5593851,-109.6764596,http://mtgreenrealeaf.com/,2023-04-24T21:19:46.235918
Havre,Adult Use,Seed Of Life Labs LLC,(406) 855-8204,222,,MTCCD,Montana Cannabis Control Division,MT,Active,,Commercial - Retailer,,,,,,,,,,Seed Of Life Labs LLC,2445 U.S. Rte 2,Hill County,59501,48.5599708,-109.6485748,http://www.seedoflifelabs.com/,2023-04-24T21:19:46.235918
Helena,Adult Use,710 Montana,(406) 209-2470,223,,MTCCD,Montana Cannabis Control Division,MT,Active,,Commercial - Retailer,,,,,,,,,,710 Montana,1417 11th Ave,Lewis and Clark County,59601,46.58939119999999,-112.0156349,http://710montana.com/,2023-04-24T21:19:46.235918
Helena,Adult Use,A Perfect Cure Mt,(406) 459-0507,224,,MTCCD,Montana Cannabis Control Division,MT,Active,,Commercial - Retailer,,,,,,,,,,A Perfect Cure Mt,3232 Legacy Loop,Lewis and Clark County,59602,46.6307772,-111.9235972,,2023-04-24T21:19:46.235918
Helena,Adult Use,Ancient Alchemy,(406) 422-8050,225,,MTCCD,Montana Cannabis Control Division,MT,Active,,Commercial - Retailer,,,,,,,,,,Ancient Alchemy,,,,,,,2023-04-24T21:19:46.235918
Helena,Adult Use,Bloom,(406) 459-2618,226,,MTCCD,Montana Cannabis Control Division,MT,Active,,Commercial - Retailer,,,,,,,,,,Bloom,1446 Euclid Ave,Lewis and Clark County,59601,46.603478,-112.0565263,https://bloommt.com/location/marijuana-dispensary-helena?utm_source=terrayn_gbp&utm_medium=organic&utm_campaign=helena,2023-04-24T21:19:46.235918
Helena,Adult Use,Bloom,(406) 458-9333,227,,MTCCD,Montana Cannabis Control Division,MT,Active,,Commercial - Retailer,,,,,,,,,,Bloom,1446 Euclid Ave,Lewis and Clark County,59601,46.603478,-112.0565263,https://bloommt.com/location/marijuana-dispensary-helena?utm_source=terrayn_gbp&utm_medium=organic&utm_campaign=helena,2023-04-24T21:19:46.235918
Helena,Adult Use,Cannabis Corner,(406) 880-1758,228,,MTCCD,Montana Cannabis Control Division,MT,Active,,Commercial - Retailer,,,,,,,,,,Cannabis Corner,104 E Broadway St Suite 1,Lewis and Clark County,59601,46.5865187,-112.0388777,https://www.cannabiscornerhelena.com/,2023-04-24T21:19:46.235918
Helena,Adult Use,Elevated,(406) 855-0291,229,,MTCCD,Montana Cannabis Control Division,MT,Active,,Commercial - Retailer,,,,,,,,,,Elevated,3710 N Montana Ave,Lewis and Clark County,59602,46.62642959999999,-112.0215164,http://elevatedmt.com/,2023-04-24T21:19:46.235918
Helena,Adult Use,Emerald Apothecary,(406) 594-2127,230,,MTCCD,Montana Cannabis Control Division,MT,Active,,Commercial - Retailer,,,,,,,,,,Emerald Apothecary,625 Barney St Suite D,Lewis and Clark County,59602,46.61955999999999,-112.032186,http://www.theemeraldapothecary.com/,2023-04-24T21:19:46.235918
Helena,Adult Use,Evergreen 406,(406) 247-0057,231,,MTCCD,Montana Cannabis Control Division,MT,Active,,Commercial - Retailer,,,,,,,,,,Evergreen 406,2121 Euclid Ave,Lewis and Clark County,59601,46.60645270000001,-112.0681059,,2023-04-24T21:19:46.235918
Helena,Adult Use,Ganja Goddess LLC,(406) 451-4291,232,,MTCCD,Montana Cannabis Control Division,MT,Active,,Commercial - Retailer,,,,,,,,,,Ganja Goddess LLC,821 N Last Chance Gulch,Lewis and Clark County,59601,46.59555049999999,-112.0337753,http://ganjagoddessmt.com/,2023-04-24T21:19:46.235918
Helena,Medical Only,Grow It Yourself Montana,(406) 439-1638,233,,MTCCD,Montana Cannabis Control Division,MT,Active,,Commercial - Retailer,,,,,,,,,,Grow It Yourself Montana,1611 Cedar St,Lewis and Clark County,59601,46.6064044,-112.0124042,https://www.facebook.com/KeepingitGreen1,2023-04-24T21:19:46.235918
Helena,Adult Use,Helena Buds,(406) 880-1758,234,,MTCCD,Montana Cannabis Control Division,MT,Active,,Commercial - Retailer,,,,,,,,,,Helena Buds,2625 Canyon Ferry Rd,Lewis and Clark County,59601,46.61639400000001,-111.9564666,https://www.helenabuds.com/,2023-04-24T21:19:46.235918
Helena,Adult Use,Helena Dispensary,(406) 577-6932,235,,MTCCD,Montana Cannabis Control Division,MT,Active,,Commercial - Retailer,,,,,,,,,,Helena Dispensary,3710 N Montana Ave,Lewis and Clark County,59602,46.62642959999999,-112.0215164,http://elevatedmt.com/,2023-04-24T21:19:46.235918
Helena,Adult Use,Keeper Of The Green,(406) 465-5413,236,,MTCCD,Montana Cannabis Control Division,MT,Active,,Commercial - Retailer,,,,,,,,,,Keeper Of The Green,1590 Dodge Ave,Lewis and Clark County,59601,46.600747,-112.0223184,http://www.keeperog.com/,2023-04-24T21:19:46.235918
Helena,Adult Use,Mtk  Inc.,(406) 465-2281,237,,MTCCD,Montana Cannabis Control Division,MT,Active,,Commercial - Retailer,,,,,,,,,,Mtk  Inc.,2025 N Last Chance Gulch,Lewis and Clark County,59601,46.6048997,-112.0238713,https://rmtsupplyhelena.com/,2023-04-24T21:19:46.235918
Helena,Adult Use,Natural Wellness LLC,(406) 539-5354,238,,MTCCD,Montana Cannabis Control Division,MT,Active,,Commercial - Retailer,,,,,,,,,,Natural Wellness LLC,235 E Lyndale Ave,Lewis and Clark County,59601,46.5978219,-112.0264789,,2023-04-24T21:19:46.235918
Helena,Adult Use,Natural Wellness LLC,(406) 529-1416,239,,MTCCD,Montana Cannabis Control Division,MT,Active,,Commercial - Retailer,,,,,,,,,,Natural Wellness LLC,235 E Lyndale Ave,Lewis and Clark County,59601,46.5978219,-112.0264789,,2023-04-24T21:19:46.235918
Helena,Adult Use,Nomad Canna Helena Store,(406) 788-6173,240,,MTCCD,Montana Cannabis Control Division,MT,Active,,Commercial - Retailer,,,,,,,,,,Nomad Canna Helena Store,1415 11th Ave,Lewis and Clark County,59601,46.5894191,-112.015716,http://www.nomadcannamt.com/,2023-04-24T21:19:46.235918
Helena,Adult Use,Olympus Incendias,(406) 531-7866,241,,MTCCD,Montana Cannabis Control Division,MT,Active,,Commercial - Retailer,,,,,,,,,,Olympus Incendias,520 Euclid Ave Ste A,Lewis and Clark County,59601,46.599701,-112.0450039,https://montana.topshelfbotanicals.com/helena/?utm_source=google&utm_medium=organic&utm_campaign=gmb&utm_content=Helena,2023-04-24T21:19:46.235918
Helena,Adult Use,Onelife Organics,(406) 594-2127,242,,MTCCD,Montana Cannabis Control Division,MT,Active,,Commercial - Retailer,,,,,,,,,,Onelife Organics,,,,,,,2023-04-24T21:19:46.235918
Helena,Medical Only,Sean's Way,(406) 202-6217,243,,MTCCD,Montana Cannabis Control Division,MT,Active,,Commercial - Retailer,,,,,,,,,,Sean's Way,1200 Bozeman Ave,Lewis and Clark County,59601,46.5999398,-112.0201504,,2023-04-24T21:19:46.235918
Helena,Adult Use,Silverleaf,(406) 594-2448,244,,MTCCD,Montana Cannabis Control Division,MT,Active,,Commercial - Retailer,,,,,,,,,,Silverleaf,1900 N Last Chance Gulch,Lewis and Clark County,59601,46.6045117,-112.0261839,http://silverleaf406.com/,2023-04-24T21:19:46.235918
Helena,Adult Use,Sleeping Giant Gardens,(406) 459-0753,245,,MTCCD,Montana Cannabis Control Division,MT,Active,,Commercial - Retailer,,,,,,,,,,Sleeping Giant Gardens,2487 York Rd,Lewis and Clark County,59602,46.6311851,-111.9636571,http://www.sleepinggiantgardens.com/,2023-04-24T21:19:46.235918
Helena,Adult Use,The Broadwater Market,(406) 603-0528,246,,MTCCD,Montana Cannabis Control Division,MT,Active,,Commercial - Retailer,,,,,,,,,,The Broadwater Market,3204 Euclid Ave,Lewis and Clark County,59602,46.6039708,-112.0863189,http://thebroadwatermarket.com/,2023-04-24T21:19:46.235918
Helena,Adult Use,The Higher Standard Corp Helena,(406) 594-5457,247,,MTCCD,Montana Cannabis Control Division,MT,Active,,Commercial - Retailer,,,,,,,,,,The Higher Standard Corp Helena,2112 N Last Chance Gulch,Lewis and Clark County,59601,46.6069823,-112.0212898,http://thehigherstandard406.com/,2023-04-24T21:19:46.235918
Helena,Adult Use,The Higher Standard Corp.,(406) 459-2571,248,,MTCCD,Montana Cannabis Control Division,MT,Active,,Commercial - Retailer,,,,,,,,,,The Higher Standard Corp.,2115 Euclid Ave Suite B,Lewis and Clark County,59601,46.6063702,-112.0678298,https://www.thehigherstandard406.com/,2023-04-24T21:19:46.235918
Helena,Adult Use,Top Shelf Botanicals,(214) 310-6361,249,,MTCCD,Montana Cannabis Control Division,MT,Active,,Commercial - Retailer,,,,,,,,,,Top Shelf Botanicals,520 Euclid Ave Ste A,Lewis and Clark County,59601,46.599701,-112.0450039,https://montana.topshelfbotanicals.com/helena/?utm_source=google&utm_medium=organic&utm_campaign=gmb&utm_content=Helena,2023-04-24T21:19:46.235918
Helena,Adult Use,Treasure Tree,(406) 370-0411,250,,MTCCD,Montana Cannabis Control Division,MT,Active,,Commercial - Retailer,,,,,,,,,,Treasure Tree,1420 Cedar St,Lewis and Clark County,59601,46.6070483,-112.0159183,https://www.treasuretreemt.com/?utm_source=terrayn_gbp&utm_medium=organic&utm_campaign=helena_gbp,2023-04-24T21:19:46.235918
Helena,Adult Use,White Pine Montana,(406) 951-2335,251,,MTCCD,Montana Cannabis Control Division,MT,Active,,Commercial - Retailer,,,,,,,,,,White Pine Montana,1018 W Custer Ave STE #5,Lewis and Clark County,59602,46.61765270000001,-112.0236886,http://whitepinemt.com/,2023-04-24T21:19:46.235918
Heron,Adult Use,Tastebuds,(406) 847-2741,252,,MTCCD,Montana Cannabis Control Division,MT,Active,,Commercial - Retailer,,,,,,,,,,Tastebuds,,,,,,,2023-04-24T21:19:46.235918
Hungry Horse,Adult Use,Mommaz Enterprises,(406) 249-7270,253,,MTCCD,Montana Cannabis Control Division,MT,Active,,Commercial - Retailer,,,,,,,,,,Mommaz Enterprises,205 Hungry Horse Blvd #190593,Flathead County,59919,48.3850377,-114.0613455,https://smoke-up.business.site/,2023-04-24T21:19:46.235918
Huson,Medical Only,Harchenko Horticulture,(406) 239-6983,254,,MTCCD,Montana Cannabis Control Division,MT,Active,,Commercial - Retailer,,,,,,,,,,Harchenko Horticulture,,,,,,,2023-04-24T21:19:46.235918
Joliet,Adult Use,Magic City Releaf Rockvale Location,(406) 598-1400,255,,MTCCD,Montana Cannabis Control Division,MT,Active,,Commercial - Retailer,,,,,,,,,,Magic City Releaf Rockvale Location,6612 S Frontage Rd,Yellowstone County,59101,45.74217970000001,-108.5815202,https://magiccityreleaf.com/,2023-04-24T21:19:46.235918
Joliet,Adult Use,Nature's Fix,(406) 598-0034,256,,MTCCD,Montana Cannabis Control Division,MT,Active,,Commercial - Retailer,,,,,,,,,,Nature's Fix,4289 US-310,Carbon County,59041,45.5233597,-108.860212,http://www.naturesfix.store/,2023-04-24T21:19:46.235918
Kalispell,Adult Use,Abilene Apothecary,(406) 210-5370,257,,MTCCD,Montana Cannabis Control Division,MT,Active,,Commercial - Retailer,,,,,,,,,,Abilene Apothecary,303 Nucleus Ave,Flathead County,59912,48.3757025,-114.1807617,https://abilene-apothecary.business.site/?utm_source=gmb&utm_medium=referral,2023-04-24T21:19:46.235918
Kalispell,Adult Use,Awesome Blossoms Mt,(406) 945-7511,258,,MTCCD,Montana Cannabis Control Division,MT,Active,,Commercial - Retailer,,,,,,,,,,Awesome Blossoms Mt,1111 Rose Crossing,Flathead County,59901,48.2551602,-114.2718496,http://www.awesomeblossomsmt.com/,2023-04-24T21:19:46.235918
Kalispell,Adult Use,Bloom,(406) 459-2618,259,,MTCCD,Montana Cannabis Control Division,MT,Active,,Commercial - Retailer,,,,,,,,,,Bloom,1430 Montana Hwy 35,Flathead County,59901,48.2150143,-114.2749359,https://bloommt.com/location/marijuana-dispensary-kalispell?utm_source=terrayn_cit&utm_medium=organic&utm_campaign=kalispell,2023-04-24T21:19:46.235918
Kalispell,Adult Use,Dank,(406) 250-3430,260,,MTCCD,Montana Cannabis Control Division,MT,Active,,Commercial - Retailer,,,,,,,,,,Dank,2105 U.S. Hwy 2 E,Flathead County,59901,48.219224,-114.2765284,https://montana.topshelfbotanicals.com/kalispell/?utm_source=google&utm_medium=organic&utm_campaign=gmb&utm_content=Kalispell,2023-04-24T21:19:46.235918
Kalispell,Adult Use,Delta 9 Collective,(406) 212-8703,261,,MTCCD,Montana Cannabis Control Division,MT,Active,,Commercial - Retailer,,,,,,,,,,Delta 9 Collective,1530 Montana Hwy 35,Flathead County,59901,48.2174591,-114.2688322,http://www.delta9c.com/,2023-04-24T21:19:46.235918
Kalispell,Adult Use,Elevated Kalispell,(406) 855-0291,262,,MTCCD,Montana Cannabis Control Division,MT,Active,,Commercial - Retailer,,,,,,,,,,Elevated Kalispell,1212 U.S. Rte 2,Flathead County,59901,48.2109335,-114.2852394,https://elevatedmt.com/,2023-04-24T21:19:46.235918
Kalispell,Adult Use,Fcgf,(406) 250-0040,263,,MTCCD,Montana Cannabis Control Division,MT,Active,,Commercial - Retailer,,,,,,,,,,Fcgf,,,,,,,2023-04-24T21:19:46.235918
Kalispell,Adult Use,Flower,(406) 207-1898,264,,MTCCD,Montana Cannabis Control Division,MT,Active,,Commercial - Retailer,,,,,,,,,,Flower,344 S Main St,Flathead County,59901,48.194952,-114.312902,http://rosemountainfloral.com/,2023-04-24T21:19:46.235918
Kalispell,Adult Use,Fruit Factory Inc,(435) 668-4387,265,,MTCCD,Montana Cannabis Control Division,MT,Active,,Commercial - Retailer,,,,,,,,,,Fruit Factory Inc,2117 U.S. Hwy 2 E,Flathead County,59901,48.2200154,-114.2767643,https://www.thefruitfactorymt.com/,2023-04-24T21:19:46.235918
Kalispell,Adult Use,Garden Mother,(406) 529-3834,266,,MTCCD,Montana Cannabis Control Division,MT,Active,,Commercial - Retailer,,,,,,,,,,Garden Mother,3250 U.S. Hwy 2 E Unit G,Flathead County,59901,48.2720011,-114.2658984,https://www.gardenmother.com/,2023-04-24T21:19:46.235918
Kalispell,Adult Use,Glacier Green Cross,(406) 890-2237,267,,MTCCD,Montana Cannabis Control Division,MT,Active,,Commercial - Retailer,,,,,,,,,,Glacier Green Cross,4 River Rd,Flathead County,59901,48.2116581,-114.2859232,https://www.ggc420.com/,2023-04-24T21:19:46.235918
Kalispell,Adult Use,Green Imports,(406) 880-1758,268,,MTCCD,Montana Cannabis Control Division,MT,Active,,Commercial - Retailer,,,,,,,,,,Green Imports,2060 U.S. Hwy 2 E,Flathead County,59901,48.2185993,-114.2775622,,2023-04-24T21:19:46.235918
Kalispell,Adult Use,H&H Industries,(406) 253-1909,269,,MTCCD,Montana Cannabis Control Division,MT,Active,,Commercial - Retailer,,,,,,,,,,H&H Industries,185 Kelly Rd,Flathead County,59901,48.1787664,-114.2949495,http://www.trikeit.com/,2023-04-24T21:19:46.235918
Kalispell,Adult Use,Honey Sour,(480) 842-0078,270,,MTCCD,Montana Cannabis Control Division,MT,Active,,Commercial - Retailer,,,,,,,,,,Honey Sour,1278 U.S. Rte 2,Flathead County,59901,48.211963,-114.2828774,https://honeysour.com/,2023-04-24T21:19:46.235918
Kalispell,Adult Use,Last Best Place Cannabis LLC,(406) 750-6877,271,,MTCCD,Montana Cannabis Control Division,MT,Active,,Commercial - Retailer,,,,,,,,,,Last Best Place Cannabis LLC,2052 U.S. Hwy 2 E,Flathead County,59901,48.21833119999999,-114.2776286,,2023-04-24T21:19:46.235918
Kalispell,Adult Use,Lil Amsterdam Usa,(406) 885-3770,272,,MTCCD,Montana Cannabis Control Division,MT,Active,,Commercial - Retailer,,,,,,,,,,Lil Amsterdam Usa,136 N Somers Rd,Flathead County,59901,48.09700540000001,-114.2131261,http://www.lilamsterdamusa.com/,2023-04-24T21:19:46.235918
Kalispell,Adult Use,Lucid Leaf LLC,(406) 253-6559,273,,MTCCD,Montana Cannabis Control Division,MT,Active,,Commercial - Retailer,,,,,,,,,,Lucid Leaf LLC,,,,,,,2023-04-24T21:19:46.235918
Kalispell,Adult Use,Mommaz,(406) 309-2380,274,,MTCCD,Montana Cannabis Control Division,MT,Active,,Commercial - Retailer,,,,,,,,,,Mommaz,2690 US-93,Flathead County,59901,48.24632250000001,-114.33225,http://mommazdispensary.com/,2023-04-24T21:19:46.235918
Kalispell,Adult Use,Montana Bliss,(406) 260-3307,275,,MTCCD,Montana Cannabis Control Division,MT,Active,,Commercial - Retailer,,,,,,,,,,Montana Bliss,1111 Rose Crossing,Flathead County,59901,48.2553482,-114.2623901,,2023-04-24T21:19:46.235918
Kalispell,Adult Use,Montana Canna,(406) 261-3798,276,,MTCCD,Montana Cannabis Control Division,MT,Active,,Commercial - Retailer,,,,,,,,,,Montana Canna,,,,,,,2023-04-24T21:19:46.235918
Kalispell,Adult Use,Nectar 406,(406) 261-4473,277,,MTCCD,Montana Cannabis Control Division,MT,Active,,Commercial - Retailer,,,,,,,,,,Nectar 406,1533 Montana Hwy 35,Flathead County,59901,48.2179756,-114.2697219,http://nectar406.com/,2023-04-24T21:19:46.235918
Kalispell,Adult Use,Puffin Canna,(509) 710-6192,278,,MTCCD,Montana Cannabis Control Division,MT,Active,,Commercial - Retailer,,,,,,,,,,Puffin Canna,2662 U.S. Hwy 2 E,Flathead County,59901,48.244898,-114.2767301,http://puffincanna.com/,2023-04-24T21:19:46.235918
Kalispell,Adult Use,Simply Sublime,(406) 471-2519,279,,MTCCD,Montana Cannabis Control Division,MT,Active,,Commercial - Retailer,,,,,,,,,,Simply Sublime,2684 U.S. Hwy 2 E,Flathead County,59901,48.2466547,-114.276658,,2023-04-24T21:19:46.235918
Kalispell,Adult Use,Sugar Leaves,(406) 471-3129,280,,MTCCD,Montana Cannabis Control Division,MT,Active,,Commercial - Retailer,,,,,,,,,,Sugar Leaves,2682 U.S. Hwy 2 E,Flathead County,59901,48.2464611,-114.276608,http://www.sugarleavesmontana.com/,2023-04-24T21:19:46.235918
Kalispell,Adult Use,Tamarack Cannabis,(406) 261-2761,281,,MTCCD,Montana Cannabis Control Division,MT,Active,,Commercial - Retailer,,,,,,,,,,Tamarack Cannabis,151 Business Center Loop suite c,Flathead County,59901,48.3073274,-114.3366996,http://www.tamarackcannabis.com/,2023-04-24T21:19:46.235918
Kalispell,Adult Use,Tegridy Farms L.L.C.,(406) 471-6110,282,,MTCCD,Montana Cannabis Control Division,MT,Active,,Commercial - Retailer,,,,,,,,,,Tegridy Farms L.L.C.,,,,,,,2023-04-24T21:19:46.235918
Kalispell,Adult Use,The Green Haus,(406) 261-8386,283,,MTCCD,Montana Cannabis Control Division,MT,Active,,Commercial - Retailer,,,,,,,,,,The Green Haus,2306 U.S. Hwy 2 E,Flathead County,59901,48.2294397,-114.2764538,http://www.thegreenhaus.com/,2023-04-24T21:19:46.235918
Kalispell,Adult Use,Top Shelf Botanicals,(214) 310-6361,284,,MTCCD,Montana Cannabis Control Division,MT,Active,,Commercial - Retailer,,,,,,,,,,Top Shelf Botanicals,2105 U.S. Hwy 2 E,Flathead County,59901,48.219224,-114.2765284,https://montana.topshelfbotanicals.com/kalispell/?utm_source=google&utm_medium=organic&utm_campaign=gmb&utm_content=Kalispell,2023-04-24T21:19:46.235918
Lakeside,Adult Use,Green Bee Lakeside,(406) 850-0461,285,,MTCCD,Montana Cannabis Control Division,MT,Active,,Commercial - Retailer,,,,,,,,,,Green Bee Lakeside,7172 U.S. 93 S,Flathead County,59922,48.02154989999999,-114.2260497,http://www.greenbeedispensary.com/,2023-04-24T21:19:46.235918
Laurel,Adult Use,Golden Valley Honey,(406) 670-1771,286,,MTCCD,Montana Cannabis Control Division,MT,Active,,Commercial - Retailer,,,,,,,,,,Golden Valley Honey,Shannon Rd,Yellowstone County,59044,45.6808681,-108.7138646,http://goldenvalleyhoneymt.com/,2023-04-24T21:19:46.235918
Laurel,Medical Only,Grass-Hoppers,(406) 321-2066,287,,MTCCD,Montana Cannabis Control Division,MT,Active,,Commercial - Retailer,,,,,,,,,,Grass-Hoppers,,,,,,,2023-04-24T21:19:46.235918
Laurel,Adult Use,Montana Advanced Caregivers,(406) 656-0026,288,,MTCCD,Montana Cannabis Control Division,MT,Active,,Commercial - Retailer,,,,,,,,,,Montana Advanced Caregivers,11010 S Frontage Rd,Yellowstone County,59044,45.68600840000001,-108.6965255,https://www.maccannabis.com/,2023-04-24T21:19:46.235918
Lewistown,Medical Only,Bloom,(406) 459-2618,289,,MTCCD,Montana Cannabis Control Division,MT,Active,,Commercial - Retailer,,,,,,,,,,Bloom,45 US-191,Fergus County,59457,47.0701239,-109.4292298,http://bloommt.com/,2023-04-24T21:19:46.235918
Lewistown,Medical Only,Infinity Wellness Inc,(406) 600-1266,290,,MTCCD,Montana Cannabis Control Division,MT,Active,,Commercial - Retailer,,,,,,,,,,Infinity Wellness Inc,77407 US-87,Fergus County,59457,47.0559364,-109.5212396,http://infinitywellnessmt.com/,2023-04-24T21:19:46.235918
Lewistown,Medical Only,Natural Wellness LLC,(406) 529-1416,291,,MTCCD,Montana Cannabis Control Division,MT,Active,,Commercial - Retailer,,,,,,,,,,Natural Wellness LLC,1503 W Main St,Fergus County,59457,47.0568464,-109.4389272,,2023-04-24T21:19:46.235918
Libby,Adult Use,Alternative Releaf LLC,(406) 291-4282,292,,MTCCD,Montana Cannabis Control Division,MT,Active,,Commercial - Retailer,,,,,,,,,,Alternative Releaf LLC,31906 U.S. Rte 2,Lincoln County,59923,48.39478159999999,-115.5681804,http://www.releafmt.com/,2023-04-24T21:19:46.235918
Libby,Adult Use,Bloom,(406) 459-2618,293,,MTCCD,Montana Cannabis Control Division,MT,Active,,Commercial - Retailer,,,,,,,,,,Bloom,30583 U.S. Rte 2,Lincoln County,59923,48.4068048,-115.5903062,https://bloommt.com/menu/libby?utm_source=terrayn_gbp&utm_medium=organic&utm_campaign=libby,2023-04-24T21:19:46.235918
Libby,Adult Use,Fruit Factory,(435) 668-4387,294,,MTCCD,Montana Cannabis Control Division,MT,Active,,Commercial - Retailer,,,,,,,,,,Fruit Factory,33516 U.S. Hwy 2 W,Lincoln County,59923,48.37969379999999,-115.5485766,http://www.thefruitfactorymt.com/,2023-04-24T21:19:46.235918
Libby,Medical Only,Granite Peak Products,(406) 291-3350,295,,MTCCD,Montana Cannabis Control Division,MT,Active,,Commercial - Retailer,,,,,,,,,,Granite Peak Products,4028 Central Ave,Yellowstone County,59106,45.76925259999999,-108.6190064,https://www.granitepeakmt.com/,2023-04-24T21:19:46.235918
Lincoln,Adult Use,Fat Hippie,(406) 459-2618,296,,MTCCD,Montana Cannabis Control Division,MT,Active,,Commercial - Retailer,,,,,,,,,,Fat Hippie,425 MT-200,Lewis and Clark County,59639,46.9549298,-112.68201,https://www.fathippie.net/,2023-04-24T21:19:46.235918
Livingston,Adult Use,Apogee Gardens LLC,(406) 647-2128,297,,MTCCD,Montana Cannabis Control Division,MT,Active,,Commercial - Retailer,,,,,,,,,,Apogee Gardens LLC,5060 US-89 S,Park County,59047,45.6089859,-110.5759048,http://apogeegardens.com/,2023-04-24T21:19:46.235918
Livingston,Adult Use,Bloom,(406) 459-2618,298,,MTCCD,Montana Cannabis Control Division,MT,Active,,Commercial - Retailer,,,,,,,,,,Bloom,407 N 12th St,Park County,59047,45.657976,-110.5765954,https://bloommt.com/location/marijuana-dispensary-livingston?utm_source=terrayn_gbp&utm_medium=organic&utm_campaign=livingston,2023-04-24T21:19:46.235918
Livingston,Adult Use,Echo Canyon Cannabis,(406) 224-2824,299,,MTCCD,Montana Cannabis Control Division,MT,Active,,Commercial - Retailer,,,,,,,,,,Echo Canyon Cannabis,1404 E Park St,Park County,59047,45.6702144,-110.5457791,https://montana.topshelfbotanicals.com/livingston/?utm_source=google&utm_medium=organic&utm_campaign=gmb&utm_content=Livingston,2023-04-24T21:19:46.235918
Livingston,Adult Use,Ganja Goddess,(406) 451-4291,300,,MTCCD,Montana Cannabis Control Division,MT,Active,,Commercial - Retailer,,,,,,,,,,Ganja Goddess,33 Loves Ln #3,Park County,59047,45.6431999,-110.5811233,https://ganjagoddessmt.com/,2023-04-24T21:19:46.235918
Livingston,Medical Only,Pacific Valley,(334) 467-8086,301,,MTCCD,Montana Cannabis Control Division,MT,Active,,Commercial - Retailer,,,,,,,,,,Pacific Valley,,,,,,,2023-04-24T21:19:46.235918
Livingston,Adult Use,Paradise Organics,(406) 220-0661,302,,MTCCD,Montana Cannabis Control Division,MT,Active,,Commercial - Retailer,,,,,,,,,,Paradise Organics,5237 US-89,Park County,59047,45.6341387,-110.5773295,http://paradiseorganics.org/contact.html,2023-04-24T21:19:46.235918
Livingston,Adult Use,Sweet Grass,(406) 459-2618,303,,MTCCD,Montana Cannabis Control Division,MT,Active,,Commercial - Retailer,,,,,,,,,,Sweet Grass,430 N 12th St,Park County,59047,45.6584443,-110.5764727,http://sweetgrassmt.com/,2023-04-24T21:19:46.235918
Livingston,Adult Use,Top Shelf Botanicals,(270) 996-7502,304,,MTCCD,Montana Cannabis Control Division,MT,Active,,Commercial - Retailer,,,,,,,,,,Top Shelf Botanicals,1404 E Park St,Park County,59047,45.6702144,-110.5457791,https://montana.topshelfbotanicals.com/livingston/?utm_source=google&utm_medium=organic&utm_campaign=gmb&utm_content=Livingston,2023-04-24T21:19:46.235918
Lockwood,Adult Use,Jordan Schwend,(406) 647-6943,305,,MTCCD,Montana Cannabis Control Division,MT,Active,,Commercial - Retailer,,,,,,,,,,Jordan Schwend,,,,,,,2023-04-24T21:19:46.235918
Lolo,Adult Use,Bliss,(406) 396-6271,306,,MTCCD,Montana Cannabis Control Division,MT,Active,,Commercial - Retailer,,,,,,,,,,Bliss,11865 US-93,Missoula County,59847,46.75800410000001,-114.0824273,https://shop406bliss.com/,2023-04-24T21:19:46.235918
Lolo,Adult Use,Bloom,(406) 459-2618,307,,MTCCD,Montana Cannabis Control Division,MT,Active,,Commercial - Retailer,,,,,,,,,,Bloom,9809 Valley Grove Dr Unit 1,Missoula County,59847,46.7770592,-114.0893168,https://bloommt.com/location/marijuana-dispensary-lolo?utm_source=terrayn_gbp&utm_medium=organic&utm_campaign=lolo,2023-04-24T21:19:46.235918
Marion,Adult Use,Roman Golovko,(406) 212-4377,308,,MTCCD,Montana Cannabis Control Division,MT,Active,,Commercial - Retailer,,,,,,,,,,Roman Golovko,8200 U.S. Hwy 2 W,Flathead County,59925,48.0988045,-114.647627,,2023-04-24T21:19:46.235918
Mc Allister,Medical Only,Agfertilizers Division  LLC.,(406) 581-2740,309,,MTCCD,Montana Cannabis Control Division,MT,Active,,Commercial - Retailer,,,,,,,,,,Agfertilizers Division  LLC.,5 N Manchester Rd,Cascade County,59404,47.5450301,-111.4516016,http://www.montanafertilizer.com/,2023-04-24T21:19:46.235918
Miles City,Medical Only,Seed Of Life Labs,(406) 855-8204,310,,MTCCD,Montana Cannabis Control Division,MT,Active,,Commercial - Retailer,,,,,,,,,,Seed Of Life Labs,3204 Comstock St,Custer County,59301,46.40016740000001,-105.8195319,http://www.seedoflifelabs.com/,2023-04-24T21:19:46.235918
Miles City,Medical Only,Sweet Grass,(406) 459-2618,311,,MTCCD,Montana Cannabis Control Division,MT,Active,,Commercial - Retailer,,,,,,,,,,Sweet Grass,2300 Plaza Blvd,Custer County,59301,46.414044,-105.831542,https://www.sweetgrassmt.com/,2023-04-24T21:19:46.235918
Missoula,Adult Use,710 Montana,(406) 209-2470,312,,MTCCD,Montana Cannabis Control Division,MT,Active,,Commercial - Retailer,,,,,,,,,,710 Montana,1256 W Broadway St,Missoula County,59802,46.87775670000001,-114.012172,http://710montana.com/,2023-04-24T21:19:46.235918
Missoula,Adult Use,A Lucker LLC,(406) 830-0460,313,,MTCCD,Montana Cannabis Control Division,MT,Active,,Commercial - Retailer,,,,,,,,,,A Lucker LLC,2305 Duncan Dr,Missoula County,59802,46.8854339,-113.9766385,https://pearl-ranch.business.site/?utm_source=gmb&utm_medium=referral,2023-04-24T21:19:46.235918
Missoula,Adult Use,Big Sky Buds Missoula,(406) 763-1420,314,,MTCCD,Montana Cannabis Control Division,MT,Active,,Commercial - Retailer,,,,,,,,,,Big Sky Buds Missoula,109 W Main St suite b,Missoula County,59802,46.8711266,-113.9950732,http://bigskybuds.com/,2023-04-24T21:19:46.235918
Missoula,Adult Use,Big Sky Herbals & Edibles LLC,(406) 529-1919,315,,MTCCD,Montana Cannabis Control Division,MT,Active,,Commercial - Retailer,,,,,,,,,,Big Sky Herbals & Edibles LLC,1637 Idaho St,Missoula County,59801,46.87366449999999,-114.0219628,https://bigskyherbals.com/,2023-04-24T21:19:46.235918
Missoula,Adult Use,Buzz Genetics,(406) 949-0931,316,,MTCCD,Montana Cannabis Control Division,MT,Active,,Commercial - Retailer,,,,,,,,,,Buzz Genetics,2347 South Ave W,Missoula County,59801,46.8485781,-114.0365826,,2023-04-24T21:19:46.235918
Missoula,Adult Use,C 560 Organtics,(406) 274-3215,317,,MTCCD,Montana Cannabis Control Division,MT,Active,,Commercial - Retailer,,,,,,,,,,C 560 Organtics,,,,,,,2023-04-24T21:19:46.235918
Missoula,Adult Use,Ccc Farms LLC,(406) 218-1073,318,,MTCCD,Montana Cannabis Control Division,MT,Active,,Commercial - Retailer,,,,,,,,,,Ccc Farms LLC,2610 Jennifer Ct,Missoula County,59804,46.896271,-114.154363,https://copenhaverplantations.wordpress.com/,2023-04-24T21:19:46.235918
Missoula,Adult Use,Cloud Canna - 1604 W Broadway,(406) 544-9135,319,,MTCCD,Montana Cannabis Control Division,MT,Active,,Commercial - Retailer,,,,,,,,,,Cloud Canna - 1604 W Broadway,1526 South Ave W,Missoula County,59801,46.8491166,-114.0192328,https://cloudcana.com/,2023-04-24T21:19:46.235918
Missoula,Adult Use,Cloud Dispensary - 1526 South Ave,(406) 544-9135,321,,MTCCD,Montana Cannabis Control Division,MT,Active,,Commercial - Retailer,,,,,,,,,,Cloud Dispensary - 1526 South Ave,1526 South Ave W,Missoula County,59801,46.8491166,-114.0192328,https://cloudcana.com/,2023-04-24T21:19:46.235918
Missoula,Adult Use,Cloud LLC,(518) 419-1856,322,,MTCCD,Montana Cannabis Control Division,MT,Active,,Commercial - Retailer,,,,,,,,,,Cloud LLC,1526 South Ave W,Missoula County,59801,46.8491166,-114.0192328,https://cloudcana.com/,2023-04-24T21:19:46.235918
Missoula,Adult Use,Collective Elevation,(406) 396-3997,323,,MTCCD,Montana Cannabis Control Division,MT,Active,,Commercial - Retailer,,,,,,,,,,Collective Elevation,211 W Broadway St,Missoula County,59802,46.8725651,-113.9961496,http://www.collectiveelevation.com/,2023-04-24T21:19:46.235918
Missoula,Adult Use,Dancing Goat Gardens,(406) 218-0077,324,,MTCCD,Montana Cannabis Control Division,MT,Active,,Commercial - Retailer,,,,,,,,,,Dancing Goat Gardens,8056 U.S. Highway 10 W,Missoula County,59808,46.9490796,-114.1308002,https://www.dancinggoatgardens.com/stores/missoula,2023-04-24T21:19:46.235918
Missoula,Adult Use,Doubledogs,(406) 224-0238,325,,MTCCD,Montana Cannabis Control Division,MT,Active,,Commercial - Retailer,,,,,,,,,,Doubledogs,122 W Alder St,Missoula County,59802,46.87549209999999,-113.9928589,https://www.doublefrontcafe.com/,2023-04-24T21:19:46.235918
Missoula,Adult Use,Elevated,(406) 855-0291,326,,MTCCD,Montana Cannabis Control Division,MT,Active,,Commercial - Retailer,,,,,,,,,,Elevated,2301 S Higgins Ave,Missoula County,59801,46.8494479,-113.9977408,http://elevatedmt.com/,2023-04-24T21:19:46.235918
Missoula,Adult Use,Euphoria Wellness,(406) 577-2774,327,,MTCCD,Montana Cannabis Control Division,MT,Active,,Commercial - Retailer,,,,,,,,,,Euphoria Wellness,616 S Higgins Ave,Missoula County,59801,46.8654841,-113.9972937,,2023-04-24T21:19:46.235918
Missoula,Adult Use,Farm406,(406) 544-4404,328,,MTCCD,Montana Cannabis Control Division,MT,Active,,Commercial - Retailer,,,,,,,,,,Farm406,1851 Stephens Ave,Missoula County,59801,46.85367449999999,-114.0134631,http://www.farm406.com/,2023-04-24T21:19:46.235918
Missoula,Adult Use,Firefly,(406) 880-4066,329,,MTCCD,Montana Cannabis Control Division,MT,Active,,Commercial - Retailer,,,,,,,,,,Firefly,314 N 1st St W,Missoula County,59802,46.87775069999999,-113.9941789,http://www.mtfirefly.com/,2023-04-24T21:19:46.235918
Missoula,Adult Use,Flower,(406) 207-1898,330,,MTCCD,Montana Cannabis Control Division,MT,Active,,Commercial - Retailer,,,,,,,,,,Flower,811 S Higgins Ave,Missoula County,59801,46.8637295,-113.9978105,https://www.bitterrootflowershop.net/?utm_source=gmb&utm_medium=gmb-website-link&utm_campaign=tf-gmb,2023-04-24T21:19:46.235918
Missoula,Adult Use,Forbidden Gardens,(406) 396-6271,331,,MTCCD,Montana Cannabis Control Division,MT,Active,,Commercial - Retailer,,,,,,,,,,Forbidden Gardens,H Rd,Missoula County,59804,46.839247,-114.0572165,http://montananaturalist.org/,2023-04-24T21:19:46.235918
Missoula,Adult Use,Frosteez,(406) 850-5570,332,,MTCCD,Montana Cannabis Control Division,MT,Active,,Commercial - Retailer,,,,,,,,,,Frosteez,1275 W Broadway St,Missoula County,59802,46.877578,-114.0131768,http://www.frosteez.com/,2023-04-24T21:19:46.235918
Missoula,Adult Use,Garden Mother LLC.,(406) 529-3834,333,,MTCCD,Montana Cannabis Control Division,MT,Active,,Commercial - Retailer,,,,,,,,,,Garden Mother LLC.,904 Kensington Ave A,Missoula County,59801,46.853554,-114.0116051,https://www.gardenmotherherbs.com/,2023-04-24T21:19:46.235918
Missoula,Adult Use,Great Northern Pharmacy,(406) 207-7912,334,,MTCCD,Montana Cannabis Control Division,MT,Active,,Commercial - Retailer,,,,,,,,,,Great Northern Pharmacy,2829 Great Northern Loop,Missoula County,59808,46.8840025,-114.0329385,,2023-04-24T21:19:46.235918
Missoula,Adult Use,Greener Pastures,(831) 239-9028,335,,MTCCD,Montana Cannabis Control Division,MT,Active,,Commercial - Retailer,,,,,,,,,,Greener Pastures,900 Strand Ave,Missoula County,59801,46.8544269,-114.0115524,https://www.greenerpastures.com/missoula/,2023-04-24T21:19:46.235918
Missoula,Adult Use,Greenhouse Farmacy,(406) 203-2263,336,,MTCCD,Montana Cannabis Control Division,MT,Active,,Commercial - Retailer,,,,,,,,,,Greenhouse Farmacy,1541 S 3rd St W,Missoula County,59801,46.8668691,-114.0202211,http://greenhousefarmacy.com/,2023-04-24T21:19:46.235918
Missoula,Adult Use,Groove LLC.,(406) 544-7440,337,,MTCCD,Montana Cannabis Control Division,MT,Active,,Commercial - Retailer,,,,,,,,,,Groove LLC.,132 W Front St Suite 2,Missoula County,59802,46.8706089,-113.996096,https://groovesolventless.com/,2023-04-24T21:19:46.235918
Missoula,Adult Use,H&H Industries,(406) 253-1909,338,,MTCCD,Montana Cannabis Control Division,MT,Active,,Commercial - Retailer,,,,,,,,,,H&H Industries,,,,,,,2023-04-24T21:19:46.235918
Missoula,Adult Use,Hometree Co,(630) 460-2900,339,,MTCCD,Montana Cannabis Control Division,MT,Active,,Commercial - Retailer,,,,,,,,,,Hometree Co,1245 W Broadway St,Missoula County,59802,46.8772515,-114.0125078,https://www.facebook.com/HometreeMT,2023-04-24T21:19:46.235918
Missoula,Adult Use,Hydrocarellc,(509) 710-6192,340,,MTCCD,Montana Cannabis Control Division,MT,Active,,Commercial - Retailer,,,,,,,,,,Hydrocarellc,2825 Stockyard Rd STE A-20,Missoula County,59808,46.90055700000001,-114.0355476,,2023-04-24T21:19:46.235918
Missoula,Medical Only,Mary Jane's 406 Big Sky Boutique,(406) 304-8055,341,,MTCCD,Montana Cannabis Control Division,MT,Active,,Commercial - Retailer,,,,,,,,,,Mary Jane's 406 Big Sky Boutique,,,,,,,2023-04-24T21:19:46.235918
Missoula,Adult Use,Mcmad Enterprises,(406) 529-3445,342,,MTCCD,Montana Cannabis Control Division,MT,Active,,Commercial - Retailer,,,,,,,,,,Mcmad Enterprises,,,,,,,2023-04-24T21:19:46.235918
Missoula,Adult Use,Mile High Cannabis  LLC,(509) 389-2945,343,,MTCCD,Montana Cannabis Control Division,MT,Active,,Commercial - Retailer,,,,,,,,,,Mile High Cannabis  LLC,725 Ronan St STE E,Missoula County,59801,46.86302209999999,-114.0154656,http://milehighmissoula.com/,2023-04-24T21:19:46.235918
Missoula,Adult Use,Missoula (Old Hob Knob),(406) 274-3076,344,,MTCCD,Montana Cannabis Control Division,MT,Active,,Commercial - Retailer,,,,,,,,,,Missoula (Old Hob Knob),531 S Higgins Ave,Missoula County,59801,46.86623669999999,-113.9976482,https://hobnobonhiggins.com/,2023-04-24T21:19:46.235918
Missoula,Adult Use,Missoula Dispensary,(406) 577-6932,345,,MTCCD,Montana Cannabis Control Division,MT,Active,,Commercial - Retailer,,,,,,,,,,Missoula Dispensary,420 N Higgins Ave STE D,Missoula County,59802,46.87321739999999,-113.9926042,http://mtmedicinals.com/,2023-04-24T21:19:46.235918
Missoula,Medical Only,Missoula Dispensary,(406) 218-9608,346,,MTCCD,Montana Cannabis Control Division,MT,Active,,Commercial - Retailer,,,,,,,,,,Missoula Dispensary,420 N Higgins Ave STE D,Missoula County,59802,46.87321739999999,-113.9926042,http://mtmedicinals.com/,2023-04-24T21:19:46.235918
Missoula,Adult Use,Moncanna LLC,(406) 207-5331,347,,MTCCD,Montana Cannabis Control Division,MT,Active,,Commercial - Retailer,,,,,,,,,,Moncanna LLC,3314 S Reserve St C,Missoula County,59801,46.8399461,-114.0392065,http://www.moncannamade.com/,2023-04-24T21:19:46.235918
Missoula,Adult Use,Montana Dispensary,(406) 219-7220,348,,MTCCD,Montana Cannabis Control Division,MT,Active,,Commercial - Retailer,,,,,,,,,,Montana Dispensary,420 N Higgins Ave STE D,Missoula County,59802,46.87321739999999,-113.9926042,http://mtmedicinals.com/,2023-04-24T21:19:46.235918
Missoula,Adult Use,Montana Medicinals  LLC,(406) 686-1199,349,,MTCCD,Montana Cannabis Control Division,MT,Active,,Commercial - Retailer,,,,,,,,,,Montana Medicinals  LLC,420 N Higgins Ave STE D,Missoula County,59802,46.87321739999999,-113.9926042,http://mtmedicinals.com/,2023-04-24T21:19:46.235918
Missoula,Adult Use,Montana Preferred Provider,(406) 540-4147,350,,MTCCD,Montana Cannabis Control Division,MT,Active,,Commercial - Retailer,,,,,,,,,,Montana Preferred Provider,425 N 5th St W C,Missoula County,59802,46.8802585,-113.9941416,http://www.bitterrootcannabis.com/,2023-04-24T21:19:46.235918
Missoula,Adult Use,Mountain Heights,(406) 493-5328,351,,MTCCD,Montana Cannabis Control Division,MT,Active,,Commercial - Retailer,,,,,,,,,,Mountain Heights,531 S Higgins Ave,Missoula County,59801,46.86624329999999,-113.9977741,http://mountainheights.com/,2023-04-24T21:19:46.235918
Missoula,Adult Use,Mtk  Inc.,(406) 465-2281,352,,MTCCD,Montana Cannabis Control Division,MT,Active,,Commercial - Retailer,,,,,,,,,,Mtk  Inc.,1935 Cooper St,Missoula County,59808,46.8790995,-114.0195389,https://montanakush.com/,2023-04-24T21:19:46.235918
Missoula,Adult Use,Olympus Incendias,(406) 531-7866,353,,MTCCD,Montana Cannabis Control Division,MT,Active,,Commercial - Retailer,,,,,,,,,,Olympus Incendias,2591 Industry St,Missoula County,59808,46.88895160000001,-114.0247502,http://www.missoulameds.com/,2023-04-24T21:19:46.235918
Missoula,Adult Use,Prescribed Burn,(941) 993-4063,354,,MTCCD,Montana Cannabis Control Division,MT,Active,,Commercial - Retailer,,,,,,,,,,Prescribed Burn,1919 S 3rd St W,Missoula County,59801,46.86673689999999,-114.0269346,,2023-04-24T21:19:46.235918
Missoula,Adult Use,Red Dawg LLC,(406) 240-3395,355,,MTCCD,Montana Cannabis Control Division,MT,Active,,Commercial - Retailer,,,,,,,,,,Red Dawg LLC,2228 South Ave W,Missoula County,59801,46.8490066,-114.0328861,https://www.reddawgcan.com/,2023-04-24T21:19:46.235918
Missoula,Adult Use,Remedy Medicinals LLC,(406) 490-9298,356,,MTCCD,Montana Cannabis Control Division,MT,Active,,Commercial - Retailer,,,,,,,,,,Remedy Medicinals LLC,2825 Stockyard Rd Suite A-9,Missoula County,59808,46.8999383,-114.0356049,http://www.remedymontana.com/,2023-04-24T21:19:46.235918
Missoula,Adult Use,Shane Lowman,(406) 498-8723,357,,MTCCD,Montana Cannabis Control Division,MT,Active,,Commercial - Retailer,,,,,,,,,,Shane Lowman,2825 Santa Fe Ct,Missoula County,59808,46.885373,-114.0322365,http://www.missoulaeduplace.org/,2023-04-24T21:19:46.235918
Missoula,Adult Use,Spark1,(970) 232-5124,358,,MTCCD,Montana Cannabis Control Division,MT,Active,,Commercial - Retailer,,,,,,,,,,Spark1,400 E Broadway St,Missoula County,59802,46.87089940000001,-113.9894789,http://spark1mt.com/,2023-04-24T21:19:46.235918
Missoula,Adult Use,Starrbuds,(406) 240-8979,359,,MTCCD,Montana Cannabis Control Division,MT,Active,,Commercial - Retailer,,,,,,,,,,Starrbuds,1323 W Broadway St,Missoula County,59802,46.8777025,-114.0143402,http://starrbuds.com/,2023-04-24T21:19:46.235918
Missoula,Adult Use,Steves Montana Sweetgrass Company,(406) 370-7130,360,,MTCCD,Montana Cannabis Control Division,MT,Active,,Commercial - Retailer,,,,,,,,,,Steves Montana Sweetgrass Company,1510 Bulwer St,Missoula County,59802,46.88515,-114.012381,,2023-04-24T21:19:46.235918
Missoula,Adult Use,Stokes,(406) 303-0725,361,,MTCCD,Montana Cannabis Control Division,MT,Active,,Commercial - Retailer,,,,,,,,,,Stokes,2455 Dixon Ave suite a,Missoula County,59801,46.8403367,-114.0389435,http://montanastokes.com/,2023-04-24T21:19:46.235918
Missoula,Adult Use,Tastebuds LLC,(406) 880-3030,362,,MTCCD,Montana Cannabis Control Division,MT,Active,,Commercial - Retailer,,,,,,,,,,Tastebuds LLC,2502 Brooks St,Missoula County,59801,46.847213,-114.0198625,https://montana.topshelfbotanicals.com/missoula/?utm_source=google&utm_medium=organic&utm_campaign=gmb&utm_content=Missoula,2023-04-24T21:19:46.235918
Missoula,Adult Use,The Higher Standard Corp Missoula,(406) 594-5457,363,,MTCCD,Montana Cannabis Control Division,MT,Active,,Commercial - Retailer,,,,,,,,,,The Higher Standard Corp Missoula,101 W Front St,Missoula County,59802,46.8701239,-113.9957539,https://www.thehigherstandard406.com/,2023-04-24T21:19:46.235918
Missoula,Adult Use,Top Shelf Botanicals,(270) 996-7502,364,,MTCCD,Montana Cannabis Control Division,MT,Active,,Commercial - Retailer,,,,,,,,,,Top Shelf Botanicals,2502 Brooks St,Missoula County,59801,46.847213,-114.0198625,https://montana.topshelfbotanicals.com/missoula/?utm_source=google&utm_medium=organic&utm_campaign=gmb&utm_content=Missoula,2023-04-24T21:19:46.235918
Missoula,Adult Use,Urban Farmer,(406) 830-7373,365,,MTCCD,Montana Cannabis Control Division,MT,Active,,Commercial - Retailer,,,,,,,,,,Urban Farmer,120 South Ave W,Missoula County,59801,46.8490844,-113.9984507,http://www.urbanfarmermontana.com/,2023-04-24T21:19:46.235918
Missoula,Adult Use,Zen Medicine,(406) 396-3554,366,,MTCCD,Montana Cannabis Control Division,MT,Active,,Commercial - Retailer,,,,,,,,,,Zen Medicine,210 S 3rd St W,Missoula County,59801,46.8671041,-113.9995036,http://www.zenmedicinemt.com/,2023-04-24T21:19:46.235918
