activity,adult_use,business_dba_name,business_image_url,business_legal_name,business_owner_name,business_phone,business_structure,county,data_refreshed_date,expiration_date,id,issue_date,license_designation,license_number,license_status,license_status_date,license_term,license_type,licensing_authority,licensing_authority_id,medical,parcel_number,premise_city,premise_county,premise_latitude,premise_longitude,premise_state,premise_zip_code
,True,"VMO-Ops, Inc.",,"VMO-Ops, Inc.",Jamil Taylor,240-418-2120,,St. Louis city,2024-03-17T22:44:54.291227,,DIS000001,,adult-use,DIS000001,Active,,,retailer,Missouri Department of Health and Senior Services,MDHSS,False,,MO 63118,,38.5950619,-90.2291565,MO,63118
,True,BeLeaf Medical LLC,,BeLeaf Medical LLC,Kevin Riggs,636-448-6021,,St. Louis city,2024-03-17T22:44:54.291227,,DIS000002,,adult-use,DIS000002,Active,,,retailer,Missouri Department of Health and Senior Services,MDHSS,False,,Earth City,St. Louis County,38.76786329999999,-90.453037,MO,63112
,True,GF Wellness S. Grand LLC,,GF Wellness S. Grand LLC,Joseph Delia,314-282-4679,,St. Louis city,2024-03-17T22:44:54.291227,,DIS000003,,adult-use,DIS000003,Active,,,retailer,Missouri Department of Health and Senior Services,MDHSS,False,,St. Louis,,38.5924732,-90.2438353,MO,63118
,True,COMO Health LLC,,COMO Health LLC,Kevin Gibbs,240-447-5806,,St. Louis County,2024-03-17T22:44:54.291227,,DIS000004,,adult-use,DIS000004,Active,,,retailer,Missouri Department of Health and Senior Services,MDHSS,False,,MO,Boone County,38.9517053,-92.3340724,MO,63136
,True,FP4-Broadway LLC,,FP4-Broadway LLC,Krystal Wright,816-588-8838,,St. Louis County,2024-03-17T22:44:54.291227,,DIS000005,,adult-use,DIS000005,Active,,,retailer,Missouri Department of Health and Senior Services,MDHSS,False,,MO,St. Louis County,38.6075525,-90.37845050000001,MO,63119
,True,"Missouri Health & Wellness, LLC",,"Missouri Health & Wellness, LLC",Maggie Chatterton,309-255-7887,,Adair County,2024-03-17T22:44:54.291227,,DIS000006,,adult-use,DIS000006,Active,,,retailer,Missouri Department of Health and Senior Services,MDHSS,False,,MO 63501,Adair County,40.19475389999999,-92.5832496,MO,63501
,True,"Bloom Medicinals of MO, LLC",,"Bloom Medicinals of MO, LLC",Nicole Stark,561-305-3656,,Clinton County,2024-03-17T22:44:54.291227,,DIS000007,,adult-use,DIS000007,Active,,,retailer,Missouri Department of Health and Senior Services,MDHSS,False,,MO 64429,Clinton County,39.7402801,-94.241057,MO,64429
,True,BMD Smithville LLC,,BMD Smithville LLC,Jack Mitchell,858-848-4588,,Clay County,2024-03-17T22:44:54.291227,,DIS000008,,adult-use,DIS000008,Active,,,retailer,Missouri Department of Health and Senior Services,MDHSS,False,,Smithville,Clay County,39.3721853,-94.5604803,MO,64089
,True,Agri-Genesis LLC,,Agri-Genesis LLC,Richard Gunnels,660-651-8895,,St. Louis city,2024-03-17T22:44:54.291227,,DIS000009,,adult-use,DIS000009,Active,,,retailer,Missouri Department of Health and Senior Services,MDHSS,False,,MO 63111,,38.5635304,-90.2479232,MO,63111
,True,BMD Liberty LLC,,BMD Liberty LLC,Jack Mitchell,858-848-4588,,Clay County,2024-03-17T22:44:54.291227,,DIS000010,,adult-use,DIS000010,Active,,,retailer,Missouri Department of Health and Senior Services,MDHSS,False,,MO,Clay County,39.2461138,-94.4191177,MO,64068
,True,"Vertical Enterprise, LLC",,"Vertical Enterprise, LLC",Andrew Goodwin,816-582-3459,,Buchanan County,2024-03-17T22:44:54.291227,,DIS000011,,adult-use,DIS000011,Active,,,retailer,Missouri Department of Health and Senior Services,MDHSS,False,,St Joseph,Buchanan County,39.774855,-94.80387619999999,MO,64506
,True,Kansas City Cannabis Company LLC,,Kansas City Cannabis Company LLC,Kevin Stallings,816-223-7159,,Clay County,2024-03-17T22:44:54.291227,,DIS000012,,adult-use,DIS000012,Active,,,retailer,Missouri Department of Health and Senior Services,MDHSS,False,,Excelsior Springs,Clay County,39.3397324,-94.24755359999999,MO,64024
,True,Kansas City Cannabis Company LLC,,Kansas City Cannabis Company LLC,Kevin Stallings,816-223-7159,,Jackson County,2024-03-17T22:44:54.291227,,DIS000013,,adult-use,DIS000013,Active,,,retailer,Missouri Department of Health and Senior Services,MDHSS,False,,Blue Springs,Jackson County,39.0371845,-94.2733511,MO,64015
,True,Agri-Genesis LLC,,Agri-Genesis LLC,Richard Gunnels,660-651-8895,,Platte County,2024-03-17T22:44:54.291227,,DIS000014,,adult-use,DIS000014,Active,,,retailer,Missouri Department of Health and Senior Services,MDHSS,False,,MO,Jackson County,39.0997265,-94.5785667,MO,64151
,True,"True Level Investments, Inc.",,"True Level Investments, Inc.",Jordan Starke,816-832-8882,,Buchanan County,2024-03-17T22:44:54.291227,,DIS000016,,adult-use,DIS000016,Active,,,retailer,Missouri Department of Health and Senior Services,MDHSS,False,,MO 64506,,39.7898725,-94.8022232,MO,64506
,True,Red Stag Retail LLC,,Red Stag Retail LLC,Alex Close,614-296-7521,,Clay County,2024-03-17T22:44:54.291227,,DIS000017,,adult-use,DIS000017,Active,,,retailer,Missouri Department of Health and Senior Services,MDHSS,False,,MO 64157,Clay County,39.2662054,-94.46967649999999,MO,64157
,True,FP2-Natural Bridge LLC,,FP2-Natural Bridge LLC,Krystal Wright,816-588-8838,,St. Louis County,2024-03-17T22:44:54.291227,,DIS000018,,adult-use,DIS000018,Active,,,retailer,Missouri Department of Health and Senior Services,MDHSS,False,,St. Louis,St. Louis County,38.7296384,-90.3459655,MO,63134
,True,Riverside Wellness LLC,,Riverside Wellness LLC,,816-321-2010,,Platte County,2024-03-17T22:44:54.291227,,DIS000019,,adult-use,DIS000019,Active,,,retailer,Missouri Department of Health and Senior Services,MDHSS,False,,Riverside,Platte County,39.17469,-94.61245489999999,MO,64150
,True,Heya St. Ann Retail II LLC,,Heya St. Ann Retail II LLC,Carl Bearden,314-650-4597,,St. Louis County,2024-03-17T22:44:54.291227,,DIS000020,,adult-use,DIS000020,Active,,,retailer,Missouri Department of Health and Senior Services,MDHSS,False,,St Ann,St. Louis County,38.7303723,-90.38081269999999,MO,63074
,True,BMD Cameron LLC,,BMD Cameron LLC,Jack Mitchell,858-848-4588,,Platte County,2024-03-17T22:44:54.291227,,DIS000021,,adult-use,DIS000021,Active,,,retailer,Missouri Department of Health and Senior Services,MDHSS,False,,MO 64151,Platte County,39.2182916,-94.6347041,MO,64151
,True,"MO Med Hannibal, LLC",,"MO Med Hannibal, LLC",Brooke Foster,660-651-3252,,Marion County,2024-03-17T22:44:54.291227,,DIS000022,,adult-use,DIS000022,Active,,,retailer,Missouri Department of Health and Senior Services,MDHSS,False,,MO 63401,Marion County,39.7083649,-91.3585066,MO,63401
,True,"Mother Dispensaries, Inc.",,"Mother Dispensaries, Inc.",Cole  Swoboda,970-485-5730,,Buchanan County,2024-03-17T22:44:54.291227,,DIS000023,,adult-use,DIS000023,Active,,,retailer,Missouri Department of Health and Senior Services,MDHSS,False,,St Joseph,Buchanan County,39.7236134,-94.79234749999999,MO,64503
,True,JG Missouri LLC,,JG Missouri LLC,Gail Brashers-Krug,319-621-4006,,Adair County,2024-03-17T22:44:54.291227,,DIS000024,,adult-use,DIS000024,Active,,,retailer,Missouri Department of Health and Senior Services,MDHSS,False,,Kirksville,Adair County,40.1964133,-92.5771164,MO,63501
,True,Kansas City Cannabis Company LLC,,Kansas City Cannabis Company LLC,Kevin Stallings,816-223-7159,,Clay County,2024-03-17T22:44:54.291227,,DIS000026,,adult-use,DIS000026,Active,,,retailer,Missouri Department of Health and Senior Services,MDHSS,False,,Kearney,Clay County,39.3693981,-94.3677142,MO,64060
,True,"V3 Mo Vending 2, LLC",,"V3 Mo Vending 2, LLC",Nick Liaromatis,630-747-3542,,St. Louis County,2024-03-17T22:44:54.291227,,DIS000027,,adult-use,DIS000027,Active,,,retailer,Missouri Department of Health and Senior Services,MDHSS,False,,MO 63042,St. Louis County,38.7884682,-90.403094,MO,63042
,True,Kansas City Cannabis Company LLC,,Kansas City Cannabis Company LLC,Kevin Stallings,816-223-7159,,Jackson County,2024-03-17T22:44:54.291227,,DIS000028,,adult-use,DIS000028,Active,,,retailer,Missouri Department of Health and Senior Services,MDHSS,False,,Lake Lotawana,Jackson County,38.9462777,-94.27577169999999,MO,64064
,True,COMO Health LLC,,COMO Health LLC,Kevin Gibbs,240-447-5806,,St. Louis city,2024-03-17T22:44:54.291227,,DIS000029,,adult-use,DIS000029,Active,,,retailer,Missouri Department of Health and Senior Services,MDHSS,False,,MO 63109,,38.5844193,-90.2948797,MO,63109
,True,"Mo Med Chillicothe, LLC",,"Mo Med Chillicothe, LLC",Brooke Foster,660-651-3252,,Livingston County,2024-03-17T22:44:54.291227,,DIS000030,,adult-use,DIS000030,Active,,,retailer,Missouri Department of Health and Senior Services,MDHSS,False,,MO 64601,Livingston County,39.7952946,-93.5524358,MO,64601
,True,"6662 Delmar SL, LLC",,"6662 Delmar SL, LLC",Greg Windisch,707-217-1611,,St. Louis County,2024-03-17T22:44:54.291227,,DIS000031,,adult-use,DIS000031,Active,,,retailer,Missouri Department of Health and Senior Services,MDHSS,False,,University City,St. Louis County,38.656016,-90.3081571,MO,63130
,True,Agri-Genesis LLC,,Agri-Genesis LLC,Richard Gunnels,660-651-8895,,Nodaway County,2024-03-17T22:44:54.291227,,DIS000032,,adult-use,DIS000032,Active,,,retailer,Missouri Department of Health and Senior Services,MDHSS,False,,MO 64468,Nodaway County,40.3461017,-94.8724706,MO,64468
,True,Agri-Genesis LLC,,Agri-Genesis LLC,Richard Gunnels,660-651-8895,,Macon County,2024-03-17T22:44:54.291227,,DIS000033,,adult-use,DIS000033,Active,,,retailer,Missouri Department of Health and Senior Services,MDHSS,False,,Macon,Macon County,39.7662896,-92.455834,MO,63552
,True,BeLeaf Medical LLC,,BeLeaf Medical LLC,Kevin Riggs,636-448-6021,,St. Louis city,2024-03-17T22:44:54.291227,,DIS000034,,adult-use,DIS000034,Active,,,retailer,Missouri Department of Health and Senior Services,MDHSS,False,,MO 63118,,38.5950619,-90.2291565,MO,63118
,True,OXD 19341 LLC,,OXD 19341 LLC,Michele Bowman,310-435-7165,,Jackson County,2024-03-17T22:44:54.291227,,DIS000035,,adult-use,DIS000035,Active,,,retailer,Missouri Department of Health and Senior Services,MDHSS,False,,MO,Jackson County,39.0911161,-94.41550679999999,MO,64055
,True,GF Wellness Franz Park LLC,,GF Wellness Franz Park LLC,Joseph Delia,314-282-4679,,St. Louis city,2024-03-17T22:44:54.291227,,DIS000036,,adult-use,DIS000036,Active,,,retailer,Missouri Department of Health and Senior Services,MDHSS,False,,St. Louis,St. Louis County,38.6237409,-90.30662769999999,MO,63139
,True,"True Level Investments, Inc.",,"True Level Investments, Inc.",Jordan Starke,816-832-8882,,Platte County,2024-03-17T22:44:54.291227,,DIS000037,,adult-use,DIS000037,Active,,,retailer,Missouri Department of Health and Senior Services,MDHSS,False,,MO 64152,Platte County,39.20502279999999,-94.70706159999999,MO,64152
,True,Holistic Missouri LLC,,Holistic Missouri LLC,,866-217-4063,,St. Louis city,2024-03-17T22:44:54.291227,,DIS000038,,adult-use,DIS000038,Active,,,retailer,Missouri Department of Health and Senior Services,MDHSS,False,,MO 63108,,38.647459,-90.25730999999999,MO,63108
,True,"Shangri-La Cameron, LLC.",,"Shangri-La Cameron, LLC.",Shrinivas Haribhakti,573-476-3490,,Clay County,2024-03-17T22:44:54.291227,,DIS000039,,adult-use,DIS000039,Active,,,retailer,Missouri Department of Health and Senior Services,MDHSS,False,,Fishing River Township,Clay County,39.2682861,-94.2912635,MO,64068
,True,Heya Kirksville Retail LLC,,Heya Kirksville Retail LLC,Carl Bearden,314-650-4597,,Adair County,2024-03-17T22:44:54.291227,,DIS000040,,adult-use,DIS000040,Active,,,retailer,Missouri Department of Health and Senior Services,MDHSS,False,,MO 63501,Adair County,40.19475389999999,-92.5832496,MO,63501
,True,Growing Jobs Missouri LLC,,Growing Jobs Missouri LLC,Josh Ferguson,314-707-1056,,St. Louis city,2024-03-17T22:44:54.291227,,DIS000041,,adult-use,DIS000041,Active,,,retailer,Missouri Department of Health and Senior Services,MDHSS,False,,MO 63112,,38.65788,-90.2854839,MO,63112
,True,BMD Swift LLC,,BMD Swift LLC,Jack Mitchell,858-848-4588,,Clay County,2024-03-17T22:44:54.291227,,DIS000042,,adult-use,DIS000042,Active,,,retailer,Missouri Department of Health and Senior Services,MDHSS,False,,Kansas City,Jackson County,39.1402257,-94.5773045,MO,64116
,True,VMO-Ops Inc,,VMO-Ops Inc,Jamil Taylor,240-418-2120,,St. Louis city,2024-03-17T22:44:54.291227,,DIS000043,,adult-use,DIS000043,Active,,,retailer,Missouri Department of Health and Senior Services,MDHSS,False,,MO 63103,,38.629185,-90.2174318,MO,63103
,True,OXD 351 HWY LLC,,OXD 351 HWY LLC,Michele Bowman,310-435-7165,,Jackson County,2024-03-17T22:44:54.291227,,DIS000044,,adult-use,DIS000044,Active,,,retailer,Missouri Department of Health and Senior Services,MDHSS,False,,MO 64133,Jackson County,39.01771859999999,-94.4490836,MO,64133
,True,OXD Troost LLC,,OXD Troost LLC,Michele Bowman,310-435-7165,,Jackson County,2024-03-17T22:44:54.291227,,DIS000045,,adult-use,DIS000045,Active,,,retailer,Missouri Department of Health and Senior Services,MDHSS,False,,Kansas City,Jackson County,39.0346367,-94.5733539,MO,64110
,True,OXD IA LLC,,OXD IA LLC,Michele Bowman,310-435-7165,,Jackson County,2024-03-17T22:44:54.291227,,DIS000046,,adult-use,DIS000046,Active,,,retailer,Missouri Department of Health and Senior Services,MDHSS,False,,MO 64106,Jackson County,39.1040382,-94.57018029999999,MO,64106
,True,"Occidental Group, Inc.",,"Occidental Group, Inc.",JR Narayan,314-754-8710,,St. Louis County,2024-03-17T22:44:54.291227,,DIS000047,,adult-use,DIS000047,Active,,,retailer,Missouri Department of Health and Senior Services,MDHSS,False,,MO 63130,,38.6682669,-90.32308069999999,MO,63130
,True,OXD SWB LLC,,OXD SWB LLC,Michele Bowman,310-435-7165,,Jackson County,2024-03-17T22:44:54.291227,,DIS000048,,adult-use,DIS000048,Active,,,retailer,Missouri Department of Health and Senior Services,MDHSS,False,,MO 64108,Jackson County,39.0795392,-94.5985613,MO,64108
,True,FP1-S Florissant LLC,,FP1-S Florissant LLC,Krystal Wright,816-588-8838,,St. Louis County,2024-03-17T22:44:54.291227,,DIS000049,,adult-use,DIS000049,Active,,,retailer,Missouri Department of Health and Senior Services,MDHSS,False,,St. Louis,St. Louis County,38.7327783,-90.3017083,MO,63135
,True,"V3 MO Vending 6, LLC",,"V3 MO Vending 6, LLC",Nick Liaromatis,630-747-3542,,Jackson County,2024-03-17T22:44:54.291227,,DIS000050,,adult-use,DIS000050,Active,,,retailer,Missouri Department of Health and Senior Services,MDHSS,False,,MO 64132,Jackson County,38.992935,-94.55212739999999,MO,64132
,True,Fresh Green LLC,,Fresh Green LLC,Bianca Sullivan,816-806-2130,,Jackson County,2024-03-17T22:44:54.291227,,DIS000051,,adult-use,DIS000051,Active,,,retailer,Missouri Department of Health and Senior Services,MDHSS,False,,Lee's Summit,Jackson County,38.93121259999999,-94.3610566,MO,64086
,True,Growing Jobs Missouri LLC,,Growing Jobs Missouri LLC,Josh Ferguson,314-707-1056,,St. Louis city,2024-03-17T22:44:54.291227,,DIS000052,,adult-use,DIS000052,Active,,,retailer,Missouri Department of Health and Senior Services,MDHSS,False,,MO 63118,,38.5950619,-90.2291565,MO,63118
,True,"SLCC, LLC",,"SLCC, LLC",Katie Davies,907-952-2328,,Jackson County,2024-03-17T22:44:54.291227,,DIS000053,,adult-use,DIS000053,Active,,,retailer,Missouri Department of Health and Senior Services,MDHSS,False,,Kansas City,Jackson County,39.0481433,-94.59055839999999,MO,64127
,True,"MMD Independence Missouri, LLC",,"MMD Independence Missouri, LLC",Paul Rockers,573-301-9865,,Jackson County,2024-03-17T22:44:54.291227,,DIS000054,,adult-use,DIS000054,Active,,,retailer,Missouri Department of Health and Senior Services,MDHSS,False,,MO 64056,Jackson County,39.1063108,-94.30515419999999,MO,64056
,True,"Robust Missouri Dispensary 3, LLC",,"Robust Missouri Dispensary 3, LLC",Bradley Rhodes,314-276-3802,,St. Louis County,2024-03-17T22:44:54.291227,,DIS000055,,adult-use,DIS000055,Active,,,retailer,Missouri Department of Health and Senior Services,MDHSS,False,,MO 63031,St. Louis County,38.8095735,-90.3465971,MO,63031
,True,"Purple Leaf, LLC",,"Purple Leaf, LLC",Mario Gadea,520-307-9708,,Clay County,2024-03-17T22:44:54.291227,,DIS000056,,adult-use,DIS000056,Active,,,retailer,Missouri Department of Health and Senior Services,MDHSS,False,,MO 64118,Clay County,39.220735,-94.5727598,MO,64118
,True,Fresh Green LLC,,Fresh Green LLC,Bianca Sullivan,816-806-2130,,Jackson County,2024-03-17T22:44:54.291227,,DIS000057,,adult-use,DIS000057,Active,,,retailer,Missouri Department of Health and Senior Services,MDHSS,False,,Kansas City,Jackson County,38.9987088,-94.5942266,MO,64114
,True,Jais LLC,,Jais LLC,Jusmin Patel,201-253-6952,,St. Louis County,2024-03-17T22:44:54.291227,,DIS000058,,adult-use,DIS000058,Active,,,retailer,Missouri Department of Health and Senior Services,MDHSS,False,,MO 63074,St. Louis County,38.7257164,-90.38425269999999,MO,63074
,True,"Purple Leaf, LLC",,"Purple Leaf, LLC",Mario Gadea,520-307-9708,,Jackson County,2024-03-17T22:44:54.291227,,DIS000059,,adult-use,DIS000059,Active,,,retailer,Missouri Department of Health and Senior Services,MDHSS,False,,MO,Jackson County,39.0911161,-94.41550679999999,MO,64050
,True,Growing Jobs Missouri LLC,,Growing Jobs Missouri LLC,Adrienne Scales-Williams,314-220-0043,,St. Louis city,2024-03-17T22:44:54.291227,,DIS000060,,adult-use,DIS000060,Active,,,retailer,Missouri Department of Health and Senior Services,MDHSS,False,,MO 63110,,38.6212468,-90.2526163,MO,63110
,True,"Grassroots OpCo MO, LLC",,"Grassroots OpCo MO, LLC",Krystal Wright,816-588-8838,,Jackson County,2024-03-17T22:44:54.291227,,DIS000061,,adult-use,DIS000061,Active,,,retailer,Missouri Department of Health and Senior Services,MDHSS,False,,MO 64055,Jackson County,39.0608919,-94.4079213,MO,64055
,True,"Grassroots OpCo MO, LLC",,"Grassroots OpCo MO, LLC",Krystal Wright,816-588-8838,,Jackson County,2024-03-17T22:44:54.291227,,DIS000062,,adult-use,DIS000062,Active,,,retailer,Missouri Department of Health and Senior Services,MDHSS,False,,MO 64015,Jackson County,39.02310749999999,-94.30515419999999,MO,64015
,True,THF Partners LLC,,THF Partners LLC,Krystal Wright,816-588-8838,,Jackson County,2024-03-17T22:44:54.291227,,DIS000063,,adult-use,DIS000063,Active,,,retailer,Missouri Department of Health and Senior Services,MDHSS,False,,MO 64147,,38.8524485,-94.5469705,MO,64147
,True,"Bloom Medicinals of MO – Dispensary 1, LLC",,"Bloom Medicinals of MO – Dispensary 1, LLC",Jasmine Viola,419-482-8240,,St. Charles County,2024-03-17T22:44:54.291227,,DIS000064,,adult-use,DIS000064,Active,,,retailer,Missouri Department of Health and Senior Services,MDHSS,False,,MO 63304,St. Charles County,38.70360050000001,-90.6488505,MO,63304
,True,"Elevation Cannabis, LLC",,"Elevation Cannabis, LLC",Chris  Issinghoff,620-921-5967,,Jackson County,2024-03-17T22:44:54.291227,,DIS000065,,adult-use,DIS000065,Active,,,retailer,Missouri Department of Health and Senior Services,MDHSS,False,,MO,Jackson County,39.0997265,-94.5785667,MO,64130
,True,"Nirvana Bliss V, LLC",,"Nirvana Bliss V, LLC",Bradford Goette,314-448-3848,,St. Louis County,2024-03-17T22:44:54.291227,,DIS000066,,adult-use,DIS000066,Active,,,retailer,Missouri Department of Health and Senior Services,MDHSS,False,,MO,St. Louis County,38.5925532,-90.5870686,MO,63011
,True,"VMO Retail, LLC",,"VMO Retail, LLC",Paul Rockers,573-301-9865,,Jackson County,2024-03-17T22:44:54.291227,,DIS000067,,adult-use,DIS000067,Active,,,retailer,Missouri Department of Health and Senior Services,MDHSS,False,,MO 64134,Jackson County,38.9328362,-94.4902774,MO,64134
,True,THF Partners LLC,,THF Partners LLC,Krystal Wright,816-588-8838,,Jackson County,2024-03-17T22:44:54.291227,,DIS000069,,adult-use,DIS000069,Active,,,retailer,Missouri Department of Health and Senior Services,MDHSS,False,,MO 64132,Jackson County,38.992935,-94.55212739999999,MO,64132
,True,BeLeaf Medical LLC,,BeLeaf Medical LLC,Kevin Riggs,636-448-6021,,St. Louis County,2024-03-17T22:44:54.291227,,DIS000070,,adult-use,DIS000070,Active,,,retailer,Missouri Department of Health and Senior Services,MDHSS,False,,MO,St. Louis County,38.5925532,-90.5870686,MO,63011
,True,"True Level Investments, Inc.",,"True Level Investments, Inc.",Jordan Starke,816-832-8882,,Jackson County,2024-03-17T22:44:54.291227,,DIS000071,,adult-use,DIS000071,Active,,,retailer,Missouri Department of Health and Senior Services,MDHSS,False,,MO 64111,Jackson County,39.0587452,-94.5985613,MO,64111
,True,"Purple Leaf, LLC",,"Purple Leaf, LLC",Mario Gadea,520-307-9708,,Clay County,2024-03-17T22:44:54.291227,,DIS000072,,adult-use,DIS000072,Active,,,retailer,Missouri Department of Health and Senior Services,MDHSS,False,,MO 64119,Clay County,39.2015955,-94.53150289999999,MO,64119
,True,"Nirvana Bliss II, LLC",,"Nirvana Bliss II, LLC",Bradford Goette,314-448-3848,,St. Louis County,2024-03-17T22:44:54.291227,,DIS000073,,adult-use,DIS000073,Active,,,retailer,Missouri Department of Health and Senior Services,MDHSS,False,,MO 63021,St. Louis County,38.557323,-90.5352356,MO,63021
,True,"CPC of Missouri, LLC",,"CPC of Missouri, LLC",Lee Hoffman,785-766-0288,,Jackson County,2024-03-17T22:44:54.291227,,DIS000074,,adult-use,DIS000074,Active,,,retailer,Missouri Department of Health and Senior Services,MDHSS,False,,MO 64111,Jackson County,39.0587452,-94.5985613,MO,64111
,True,TC AppliCo LLC,,TC AppliCo LLC,Rachael Herndon,636-742-1337,,St. Louis County,2024-03-17T22:44:54.291227,,DIS000075,,adult-use,DIS000075,Active,,,retailer,Missouri Department of Health and Senior Services,MDHSS,False,,MO,St. Louis County,38.6608855,-90.42261800000001,MO,63141
,True,"BD Health Retail 3, LLC",,"BD Health Retail 3, LLC",Mark Hendren,417-850-9999,,Jackson County,2024-03-17T22:44:54.291227,,DIS000076,,adult-use,DIS000076,Active,,,retailer,Missouri Department of Health and Senior Services,MDHSS,False,,MO 64063,Jackson County,38.9116463,-94.36165160000002,MO,64063
,True,"Releaf Resources, LLC",,"Releaf Resources, LLC",Robert Clark,816-213-4852,,Jackson County,2024-03-17T22:44:54.291227,,DIS000077,,adult-use,DIS000077,Active,,,retailer,Missouri Department of Health and Senior Services,MDHSS,False,,Grandview,Jackson County,38.8733959,-94.5287599,MO,64030
,True,TC AppliCo LLC,,TC AppliCo LLC,Rachael Herndon,636-742-1337,,Jackson County,2024-03-17T22:44:54.291227,,DIS000078,,adult-use,DIS000078,Active,,,retailer,Missouri Department of Health and Senior Services,MDHSS,False,,MO,Jackson County,39.0997265,-94.5785667,MO,64108
,True,TC AppliCo LLC,,TC AppliCo LLC,Rachael Herndon,636-742-1337,,St. Louis County,2024-03-17T22:44:54.291227,,DIS000079,,adult-use,DIS000079,Active,,,retailer,Missouri Department of Health and Senior Services,MDHSS,False,,MO,St. Louis County,38.5025537,-90.62790439999999,MO,63025
,True,JG Missouri LLC,,JG Missouri LLC,Gail Brashers-Krug,319-621-4006,,St. Louis County,2024-03-17T22:44:54.291227,,DIS000080,,adult-use,DIS000080,Active,,,retailer,Missouri Department of Health and Senior Services,MDHSS,False,,MO 63088,St. Louis County,38.5522581,-90.4927134,MO,63088
,True,"BD Health Retail 2, LLC",,"BD Health Retail 2, LLC",Mark Hendren,417-850-9999,,Greene County,2024-03-17T22:44:54.291227,,DIS000081,,adult-use,DIS000081,Active,,,retailer,Missouri Department of Health and Senior Services,MDHSS,False,,Springfield,Greene County,37.2156128,-93.3518567,MO,65803
,True,"MoBIG Properties, LLC",,"MoBIG Properties, LLC",Nancy Price,417-343-8257,,Greene County,2024-03-17T22:44:54.291227,,DIS000082,,adult-use,DIS000082,Active,,,retailer,Missouri Department of Health and Senior Services,MDHSS,False,,MO,Greene County,37.2089572,-93.29229889999999,MO,65807
,True,Growing Jobs Missouri LLC,,Growing Jobs Missouri LLC,Josh Ferguson,314-707-1056,,St. Louis County,2024-03-17T22:44:54.291227,,DIS000083,,adult-use,DIS000083,Active,,,retailer,Missouri Department of Health and Senior Services,MDHSS,False,,MO 63011,St. Louis County,38.6044507,-90.5588787,MO,63011
,True,"MoBIG Properties, LLC",,"MoBIG Properties, LLC",Nancy Price,417-343-8257,,Jasper County,2024-03-17T22:44:54.291227,,DIS000084,,adult-use,DIS000084,Active,,,retailer,Missouri Department of Health and Senior Services,MDHSS,False,,MO 64804,,37.0193161,-94.5005808,MO,64804
,True,COMO Health LLC,,COMO Health LLC,Kevin Gibbs,240-447-5806,,Stone County,2024-03-17T22:44:54.291227,,DIS000085,,adult-use,DIS000085,Active,,,retailer,Missouri Department of Health and Senior Services,MDHSS,False,,MO 65737,Stone County,36.6970059,-93.3693524,MO,65737
,True,"New Growth Horizon, LLC",,"New Growth Horizon, LLC",,314-462-9899,,St. Louis County,2024-03-17T22:44:54.291227,,DIS000086,,adult-use,DIS000086,Active,,,retailer,Missouri Department of Health and Senior Services,MDHSS,False,,MO 63126,St. Louis County,38.552678,-90.3795438,MO,63126
,True,"BBMO 2, LLC",,"BBMO 2, LLC",Nicholas  Rinella,312-925-1217,,Greene County,2024-03-17T22:44:54.291227,,DIS000087,,adult-use,DIS000087,Active,,,retailer,Missouri Department of Health and Senior Services,MDHSS,False,,MO 65804,Greene County,37.1565149,-93.2483058,MO,65804
,True,"Nature's Med MO, LLC",,"Nature's Med MO, LLC",Jayeshkumar Patel,618-210-1577,,St. Louis County,2024-03-17T22:44:54.291227,,DIS000088,,adult-use,DIS000088,Active,,,retailer,Missouri Department of Health and Senior Services,MDHSS,False,,St. Louis,St. Louis County,38.5181957,-90.28131810000001,MO,63125
,True,"Old Route 66 Wellness, LLC",,"Old Route 66 Wellness, LLC",Juan Lopez,417-895-8733,,Greene County,2024-03-17T22:44:54.291227,,DIS000089,,adult-use,DIS000089,Active,,,retailer,Missouri Department of Health and Senior Services,MDHSS,False,,Springfield,Greene County,37.248115,-93.2621558,MO,65803
,True,"Old Route 66 Holdings, LLC",,"Old Route 66 Holdings, LLC",Mark Hendren,417-850-9999,,Christian County,2024-03-17T22:44:54.291227,,DIS000090,,adult-use,DIS000090,Active,,,retailer,Missouri Department of Health and Senior Services,MDHSS,False,,"Old Rte 66, Missouri, USA",,38.2972652,-91.1003056,MO,65721
,True,Astro Farms Gamma LLC,,Astro Farms Gamma LLC,Alex Close,614-296-7521,,Jasper County,2024-03-17T22:44:54.291227,,DIS000091,,adult-use,DIS000091,Active,,,retailer,Missouri Department of Health and Senior Services,MDHSS,False,,MO 64801,Jasper County,37.1034245,-94.5418141,MO,64801
,True,"Grassroots OpCo MO, LLC",,"Grassroots OpCo MO, LLC",Krystal Wright,816-588-8838,,Taney County,2024-03-17T22:44:54.291227,,DIS000092,,adult-use,DIS000092,Active,,,retailer,Missouri Department of Health and Senior Services,MDHSS,False,,MO 65616,Taney County,36.6436731,-93.21851439999999,MO,65616
,True,"The Dispensary, LLC",,"The Dispensary, LLC",Charlea Estes-Jones,417-665-1990,,Barry County,2024-03-17T22:44:54.291227,,DIS000093,,adult-use,DIS000093,Active,,,retailer,Missouri Department of Health and Senior Services,MDHSS,False,,MO 65625,Barry County,36.6789257,-93.86807549999999,MO,65625
,True,"MoBIG Properties, LLC",,"MoBIG Properties, LLC",Matt Warne,573-289-0104,,Greene County,2024-03-17T22:44:54.291227,,DIS000094,,adult-use,DIS000094,Active,,,retailer,Missouri Department of Health and Senior Services,MDHSS,False,,MO 65804,Greene County,37.1565149,-93.2483058,MO,65804
,True,"Revival Ninety-Eight, LLC",,"Revival Ninety-Eight, LLC",,816-556-3101,,Greene County,2024-03-17T22:44:54.291227,,DIS000095,,adult-use,DIS000095,Active,,,retailer,Missouri Department of Health and Senior Services,MDHSS,False,,MO 65807,Greene County,37.1756964,-93.3288183,MO,65807
,True,"Ozarks MMD, LLC",,"Ozarks MMD, LLC",Scott Lancaster,870-805-0797,,Greene County,2024-03-17T22:44:54.291227,,DIS000096,,adult-use,DIS000096,Active,,,retailer,Missouri Department of Health and Senior Services,MDHSS,False,,MO 65807,Greene County,37.1756964,-93.3288183,MO,65807
,True,SMO4 INC,,SMO4 INC,LeAnne Dickerson,816-810-3236,,Jasper County,2024-03-17T22:44:54.291227,,DIS000097,,adult-use,DIS000097,Active,,,retailer,Missouri Department of Health and Senior Services,MDHSS,False,,MO 64836,Jasper County,37.176447,-94.31022279999999,MO,64836
,True,GF Wellness St. Peters LLC,,GF Wellness St. Peters LLC,Joseph Delia,314-282-4679,,St. Charles County,2024-03-17T22:44:54.291227,,DIS000098,,adult-use,DIS000098,Active,,,retailer,Missouri Department of Health and Senior Services,MDHSS,False,,St Peters,St. Charles County,38.748402,-90.5775426,MO,63303
,True,"Missouri Joint Ventures, LLC",,"Missouri Joint Ventures, LLC",,417-374-7408,,Christian County,2024-03-17T22:44:54.291227,,DIS000099,,adult-use,DIS000099,Active,,,retailer,Missouri Department of Health and Senior Services,MDHSS,False,,MO 65714,Christian County,37.0433863,-93.294353,MO,65714
,True,"QPS Missouri Holdings, LLC",,"QPS Missouri Holdings, LLC",Vishal Rungta,734-412-4600,,St. Charles County,2024-03-17T22:44:54.291227,,DIS000100,,adult-use,DIS000100,Active,,,retailer,Missouri Department of Health and Senior Services,MDHSS,False,,MO 63304,St. Charles County,38.70360050000001,-90.6488505,MO,63304
,True,"RR Missouri, LLC",,"RR Missouri, LLC",Vishal Rungta,248-255-1283,,Greene County,2024-03-17T22:44:54.291227,,DIS000101,,adult-use,DIS000101,Active,,,retailer,Missouri Department of Health and Senior Services,MDHSS,False,,MO 65802,Greene County,37.1953893,-93.3892894,MO,65802
,True,"Bloom Medicinals of MO, LLC",,"Bloom Medicinals of MO, LLC",Jasmine Viola,419-482-8240,,Greene County,2024-03-17T22:44:54.291227,,DIS000102,,adult-use,DIS000102,Active,,,retailer,Missouri Department of Health and Senior Services,MDHSS,False,,MO 65802,Greene County,37.1953893,-93.3892894,MO,65802
,True,"QPS Missouri Holdings, LLC",,"QPS Missouri Holdings, LLC",Vishal Rungta,734-412-4600,,St. Louis County,2024-03-17T22:44:54.291227,,DIS000103,,adult-use,DIS000103,Active,,,retailer,Missouri Department of Health and Senior Services,MDHSS,False,,MO 63127,St. Louis County,38.531543,-90.417231,MO,63127
,True,"V3 MO Vending 5, LLC",,"V3 MO Vending 5, LLC",Nick Liaromatis,630-747-3542,,Greene County,2024-03-17T22:44:54.291227,,DIS000104,,adult-use,DIS000104,Active,,,retailer,Missouri Department of Health and Senior Services,MDHSS,False,,MO 65803,Greene County,37.294172,-93.29861059999999,MO,65803
,True,"SW Retail Holdings, LLC",,"SW Retail Holdings, LLC",Adam Stacey,417-840-0577,,Stone County,2024-03-17T22:44:54.291227,,DIS000105,,adult-use,DIS000105,Active,,,retailer,Missouri Department of Health and Senior Services,MDHSS,False,,MO 65737,Stone County,36.6970059,-93.3693524,MO,65737
,True,"Harmony Neosho, LLC",,"Harmony Neosho, LLC",Daryl Deel,417-434-4892,,Newton County,2024-03-17T22:44:54.291227,,DIS000106,,adult-use,DIS000106,Active,,,retailer,Missouri Department of Health and Senior Services,MDHSS,False,,Neosho,Newton County,36.8690353,-94.3819793,MO,64850
,True,"Grassroots OpCo MO, LLC",,"Grassroots OpCo MO, LLC",Krystal Wright,816-588-8838,,Greene County,2024-03-17T22:44:54.291227,,DIS000107,,adult-use,DIS000107,Active,,,retailer,Missouri Department of Health and Senior Services,MDHSS,False,,MO 65802,Greene County,37.1953893,-93.3892894,MO,65802
,True,"Grassroots OpCo MO, LLC",,"Grassroots OpCo MO, LLC",Krystal Wright,816-588-8838,,Jasper County,2024-03-17T22:44:54.291227,,DIS000108,,adult-use,DIS000108,Active,,,retailer,Missouri Department of Health and Senior Services,MDHSS,False,,MO 64801,Jasper County,37.1034245,-94.5418141,MO,64801
,True,"Missouri Made Marijuana, LLC",,"Missouri Made Marijuana, LLC",Randy Black Sr,417-782-9024,,Jasper County,2024-03-17T22:44:54.291227,,DIS000109,,adult-use,DIS000109,Active,,,retailer,Missouri Department of Health and Senior Services,MDHSS,False,,Joplin,Jasper County,37.0737428,-94.4781855,MO,64804
,True,Easy Mountain Investments LLC,,Easy Mountain Investments LLC,Alex Paulson,417-773-4605,,Greene County,2024-03-17T22:44:54.291227,,DIS000110,,adult-use,DIS000110,Active,,,retailer,Missouri Department of Health and Senior Services,MDHSS,False,,Republic,Greene County,37.1330057,-93.451036,MO,65738
,True,"Bloom Medicinals of MO – Dispensary 1, LLC",,"Bloom Medicinals of MO – Dispensary 1, LLC",Jasmine Viola,419-482-8240,,Cape Girardeau County,2024-03-17T22:44:54.291227,,DIS000111,,adult-use,DIS000111,Active,,,retailer,Missouri Department of Health and Senior Services,MDHSS,False,,Cape Girardeau,Cape Girardeau County,37.3222483,-89.55975389999999,MO,63701
,True,"New Growth Horizon, LLC",,"New Growth Horizon, LLC",John Pennington,314-749-2677,,St. Louis County,2024-03-17T22:44:54.291227,,DIS000112,,adult-use,DIS000112,Active,,,retailer,Missouri Department of Health and Senior Services,MDHSS,False,,MO 63125,,38.5161654,-90.2901815,MO,63125
,True,JG Missouri LLC,,JG Missouri LLC,Gail Brashers-Krug,319-621-4006,,St. Louis County,2024-03-17T22:44:54.291227,,DIS000114,,adult-use,DIS000114,Active,,,retailer,Missouri Department of Health and Senior Services,MDHSS,False,,MO 63105,,38.6446552,-90.33013419999999,MO,63105
,True,Hayti Investments LLC,,Hayti Investments LLC,Krystal Wright,816-588-8838,,Pemiscot County,2024-03-17T22:44:54.291227,,DIS000115,,adult-use,DIS000115,Active,,,retailer,Missouri Department of Health and Senior Services,MDHSS,False,,MO 63851,Pemiscot County,36.233679,-89.74952720000002,MO,63851
,True,"Nirvana Bliss I, LLC",,"Nirvana Bliss I, LLC",Bradford Goette,314-448-3848,,Jefferson County,2024-03-17T22:44:54.291227,,DIS000116,,adult-use,DIS000116,Active,,,retailer,Missouri Department of Health and Senior Services,MDHSS,False,,MO,Jefferson County,38.2135566,-90.40329659999999,MO,63028
,True,"V3 MO Vending 7, LLC",,"V3 MO Vending 7, LLC",Nick Liaromatis,630-747-3542,,St. Louis County,2024-03-17T22:44:54.291227,,DIS000117,,adult-use,DIS000117,Active,,,retailer,Missouri Department of Health and Senior Services,MDHSS,False,,MO 63141,St. Louis County,38.6624944,-90.4785495,MO,63141
,True,Heya Park Hills Retail LLC,,Heya Park Hills Retail LLC,Carl Bearden,314-650-4597,,St. Francois County,2024-03-17T22:44:54.291227,,DIS000118,,adult-use,DIS000118,Active,,,retailer,Missouri Department of Health and Senior Services,MDHSS,False,,Park Hills,St. Francois County,37.8428039,-90.4957962,MO,63601
,True,"Organic Remedies MO, Inc.",,"Organic Remedies MO, Inc.",,573-279-4020,,St. Louis County,2024-03-17T22:44:54.291227,,DIS000119,,adult-use,DIS000119,Active,,,retailer,Missouri Department of Health and Senior Services,MDHSS,False,,MO,,38.6270025,-90.19940419999999,MO,63123
,True,Sikeston Investments LLC,,Sikeston Investments LLC,Krystal Wright,816-588-8838,,Scott County,2024-03-17T22:44:54.291227,,DIS000120,,adult-use,DIS000120,Active,,,retailer,Missouri Department of Health and Senior Services,MDHSS,False,,MO 63801,Scott County,36.876719,-89.5878579,MO,63801
,True,COMO Health LLC,,COMO Health LLC,Kevin Gibbs,240-447-5806,,St. Louis County,2024-03-17T22:44:54.291227,,DIS000121,,adult-use,DIS000121,Active,,,retailer,Missouri Department of Health and Senior Services,MDHSS,False,,MO 63088,St. Louis County,38.5522581,-90.4927134,MO,63088
,True,Poplar Bluff Investments LLC,,Poplar Bluff Investments LLC,Krystal Wright,816-588-8838,,Butler County,2024-03-17T22:44:54.291227,,DIS000122,,adult-use,DIS000122,Active,,,retailer,Missouri Department of Health and Senior Services,MDHSS,False,,MO,Butler County,36.7539046,-90.3933649,MO,63901
,True,"STL Dispensaries 51, LLC",,"STL Dispensaries 51, LLC",Joseph Barczewski,314-892-7005,,St. Louis County,2024-03-17T22:44:54.291227,,DIS000123,,adult-use,DIS000123,Active,,,retailer,Missouri Department of Health and Senior Services,MDHSS,False,,St. Louis,,38.59285819999999,-90.28605309999999,MO,63123
,True,"Green South Missouri, LLC",,"Green South Missouri, LLC",Aaron Crawley,479-502-0487,,Jasper County,2024-03-17T22:44:54.291227,,DIS000124,,adult-use,DIS000124,Active,,,retailer,Missouri Department of Health and Senior Services,MDHSS,False,,Joplin,Newton County,37.0529983,-94.4105747,MO,64804
,True,"Nature's Health and Wellness, LLC",,"Nature's Health and Wellness, LLC",Claire O'Hern,847-830-2561,,Dent County,2024-03-17T22:44:54.291227,,DIS000125,,adult-use,DIS000125,Active,,,retailer,Missouri Department of Health and Senior Services,MDHSS,False,,MO 65560,Dent County,37.6455993,-91.53598079999999,MO,65560
,True,"Wild MMD Investments, LLC",,"Wild MMD Investments, LLC",Paul Rockers,573-301-9865,,St. Charles County,2024-03-17T22:44:54.291227,,DIS000126,,adult-use,DIS000126,Active,,,retailer,Missouri Department of Health and Senior Services,MDHSS,False,,MO,St. Charles County,38.8106075,-90.69984769999999,MO,63368
,True,"Nature's Health and Wellness, LLC",,"Nature's Health and Wellness, LLC",Claire O'Hern,847-830-2561,,Phelps County,2024-03-17T22:44:54.291227,,DIS000127,,adult-use,DIS000127,Active,,,retailer,Missouri Department of Health and Senior Services,MDHSS,False,,MO,Phelps County,37.948544,-91.7715303,MO,65401
,True,Astro Farms Alpha LLC,,Astro Farms Alpha LLC,Alex Close,614-296-7521,,Stoddard County,2024-03-17T22:44:54.291227,,DIS000128,,adult-use,DIS000128,Active,,,retailer,Missouri Department of Health and Senior Services,MDHSS,False,,MO 63841,Stoddard County,36.7958866,-89.9578688,MO,63841
,True,"BBMO 1, LLC",,"BBMO 1, LLC",Nicholas  Rinella,312-925-1217,,St. Louis County,2024-03-17T22:44:54.291227,,DIS000129,,adult-use,DIS000129,Active,,,retailer,Missouri Department of Health and Senior Services,MDHSS,False,,MO 63005,,38.6299452,-90.6962853,MO,63005
,True,"RR Missouri, LLC",,"RR Missouri, LLC",Vishal Rungta,248-255-1283,,Wright County,2024-03-17T22:44:54.291227,,DIS000130,,adult-use,DIS000130,Active,,,retailer,Missouri Department of Health and Senior Services,MDHSS,False,,MO 65711,Wright County,37.1306078,-92.2634942,MO,65711
,True,"Occidental Group, Inc.",,"Occidental Group, Inc.",JR Narayan,314-754-8710,,Jefferson County,2024-03-17T22:44:54.291227,,DIS000131,,adult-use,DIS000131,Active,,,retailer,Missouri Department of Health and Senior Services,MDHSS,False,,MO,Jefferson County,38.2135566,-90.40329659999999,MO,63028
,True,JG Missouri LLC,,JG Missouri LLC,Gail Brashers-Krug,319-621-4006,,St. Francois County,2024-03-17T22:44:54.291227,,DIS000132,,adult-use,DIS000132,Active,,,retailer,Missouri Department of Health and Senior Services,MDHSS,False,,MO 63640,St. Francois County,37.7808846,-90.4217895,MO,63640
,True,"Nature's Health and Wellness, LLC",,"Nature's Health and Wellness, LLC",Claire O'Hern,847-830-2561,,Phelps County,2024-03-17T22:44:54.291227,,DIS000133,,adult-use,DIS000133,Active,,,retailer,Missouri Department of Health and Senior Services,MDHSS,False,,MO 65559,Phelps County,37.9972645,-91.61432239999999,MO,65559
,True,"JK MMD Investments, LLC",,"JK MMD Investments, LLC",Ryan Herget,507-607-1508,,Cape Girardeau County,2024-03-17T22:44:54.291227,,DIS000134,,adult-use,DIS000134,Active,,,retailer,Missouri Department of Health and Senior Services,MDHSS,False,,MO 63755,Cape Girardeau County,37.3822732,-89.6662063,MO,63755
,True,"JK MMD Investments, LLC",,"JK MMD Investments, LLC",Ryan Herget,507-607-1508,,Dunklin County,2024-03-17T22:44:54.291227,,DIS000135,,adult-use,DIS000135,Active,,,retailer,Missouri Department of Health and Senior Services,MDHSS,False,,MO 63857,Dunklin County,36.2361762,-90.0556493,MO,63857
,True,"North Medical Group, LLC",,"North Medical Group, LLC",Kelsey Volner,314-366-5617,,Jefferson County,2024-03-17T22:44:54.291227,,DIS000136,,adult-use,DIS000136,Active,,,retailer,Missouri Department of Health and Senior Services,MDHSS,False,,MO 63050,Jefferson County,38.2320376,-90.5627432,MO,63050
,True,Bootheel CannaCare Dispensary LLC,,Bootheel CannaCare Dispensary LLC,Lori Garrett,573-359-4963,,Cape Girardeau County,2024-03-17T22:44:54.291227,,DIS000137,,adult-use,DIS000137,Active,,,retailer,Missouri Department of Health and Senior Services,MDHSS,False,,MO,Cape Girardeau County,37.3058839,-89.51814759999999,MO,63701
,True,"Organic Remedies MO, Inc.",,"Organic Remedies MO, Inc.",,573-279-4020,,Cape Girardeau County,2024-03-17T22:44:54.291227,,DIS000138,,adult-use,DIS000138,Active,,,retailer,Missouri Department of Health and Senior Services,MDHSS,False,,MO,Cape Girardeau County,37.3058839,-89.51814759999999,MO,63701
,True,Cape Girardeau Investments LLC,,Cape Girardeau Investments LLC,Krystal Wright,816-588-8838,,Cape Girardeau County,2024-03-17T22:44:54.291227,,DIS000139,,adult-use,DIS000139,Active,,,retailer,Missouri Department of Health and Senior Services,MDHSS,False,,MO,Cape Girardeau County,37.3058839,-89.51814759999999,MO,63701
,True,29 AND 79 LLC,,29 AND 79 LLC,Daniel Freund,573-366-0027,,St. Francois County,2024-03-17T22:44:54.291227,,DIS000141,,adult-use,DIS000141,Active,,,retailer,Missouri Department of Health and Senior Services,MDHSS,False,,MO 63640,St. Francois County,37.7808846,-90.4217895,MO,63640
,True,"Kind Goods Fenton, LLC",,"Kind Goods Fenton, LLC",Andrew Lammert,314-223-6680,,St. Louis County,2024-03-17T22:44:54.291227,,DIS000142,,adult-use,DIS000142,Active,,,retailer,Missouri Department of Health and Senior Services,MDHSS,False,,Fenton,St. Louis County,38.5025243,-90.4449997,MO,63026
,True,"QPS Missouri Holdings, LLC",,"QPS Missouri Holdings, LLC",Vishal Rungta,734-412-4600,,Cape Girardeau County,2024-03-17T22:44:54.291227,,DIS000143,,adult-use,DIS000143,Active,,,retailer,Missouri Department of Health and Senior Services,MDHSS,False,,MO 63703,Cape Girardeau County,37.2856186,-89.5403279,MO,63703
,True,"RR Missouri, LLC",,"RR Missouri, LLC",Vishal Rungta,248-255-1283,,Howell County,2024-03-17T22:44:54.291227,,DIS000144,,adult-use,DIS000144,Active,,,retailer,Missouri Department of Health and Senior Services,MDHSS,False,,MO 65775,,36.7242055,-91.8708613,MO,65775
,True,"Missouri Health & Wellness, LLC",,"Missouri Health & Wellness, LLC",Maggie Chatterton,309-255-7887,,Franklin County,2024-03-17T22:44:54.291227,,DIS000145,,adult-use,DIS000145,Active,,,retailer,Missouri Department of Health and Senior Services,MDHSS,False,,MO,Franklin County,38.55810719999999,-91.01208779999999,MO,63090
,True,"Missouri Health & Wellness, LLC",,"Missouri Health & Wellness, LLC",Maggie Chatterton,309-255-7887,,Pettis County,2024-03-17T22:44:54.291227,,DIS000146,,adult-use,DIS000146,Active,,,retailer,Missouri Department of Health and Senior Services,MDHSS,False,,Sedalia,Pettis County,38.6963602,-93.25040729999999,MO,65301
,True,"Missouri Health & Wellness, LLC",,"Missouri Health & Wellness, LLC",Maggie Chatterton,309-255-7887,,Cole County,2024-03-17T22:44:54.291227,,DIS000147,,adult-use,DIS000147,Active,,,retailer,Missouri Department of Health and Senior Services,MDHSS,False,,Jefferson City,Cole County,38.5526813,-92.20282809999999,MO,65109
,True,"BD Health Retail 1, LLC",,"BD Health Retail 1, LLC",Mark Hendren,417-850-9999,,Polk County,2024-03-17T22:44:54.291227,,DIS000148,,adult-use,DIS000148,Active,,,retailer,Missouri Department of Health and Senior Services,MDHSS,False,,MO 65674,Polk County,37.7944806,-93.57798149999999,MO,65674
,True,"Nirvana Bliss III, LLC",,"Nirvana Bliss III, LLC",Bradford Goette,314-448-3848,,Jefferson County,2024-03-17T22:44:54.291227,,DIS000149,,adult-use,DIS000149,Active,,,retailer,Missouri Department of Health and Senior Services,MDHSS,False,,MO 63051,Jefferson County,38.4096193,-90.56970849999999,MO,63051
,True,BMD Warrensburg LLC,,BMD Warrensburg LLC,Jack Mitchell,858-848-4588,,Johnson County,2024-03-17T22:44:54.291227,,DIS000150,,adult-use,DIS000150,Active,,,retailer,Missouri Department of Health and Senior Services,MDHSS,False,,MO 64093,Johnson County,38.7627893,-93.73604979999999,MO,64093
,True,BeLeaf Medical LLC,,BeLeaf Medical LLC,Kevin Riggs,636-448-6021,,St. Charles County,2024-03-17T22:44:54.291227,,DIS000151,,adult-use,DIS000151,Active,,,retailer,Missouri Department of Health and Senior Services,MDHSS,False,,Earth City,St. Louis County,38.76786329999999,-90.453037,MO,63376
,True,Nature’s Med MO LLC,,Nature’s Med MO LLC,Jayeshkumar Patel,618-210-1577,,St. Charles County,2024-03-17T22:44:54.291227,,DIS000152,,adult-use,DIS000152,Active,,,retailer,Missouri Department of Health and Senior Services,MDHSS,False,,O'Fallon,St. Charles County,38.7907638,-90.73717490000001,MO,63366
,True,"MO Med Moberly, LLC",,"MO Med Moberly, LLC",Brooke Foster,660-651-3252,,Randolph County,2024-03-17T22:44:54.291227,,DIS000153,,adult-use,DIS000153,Active,,,retailer,Missouri Department of Health and Senior Services,MDHSS,False,,Moberly,Randolph County,39.4192646,-92.4376241,MO,65270
,True,GRD TROY LLC,,GRD TROY LLC,,833-469-9333,,Lincoln County,2024-03-17T22:44:54.291227,,DIS000154,,adult-use,DIS000154,Active,,,retailer,Missouri Department of Health and Senior Services,MDHSS,False,,Troy,Lincoln County,38.9883205,-90.9753363,MO,63379
,True,"V3 MO Vending 1, LLC",,"V3 MO Vending 1, LLC",Nick Liaromatis,630-747-3542,,St. Charles County,2024-03-17T22:44:54.291227,,DIS000155,,adult-use,DIS000155,Active,,,retailer,Missouri Department of Health and Senior Services,MDHSS,False,,MO 63366,St. Charles County,38.8809704,-90.73427339999999,MO,63366
,True,"Missouri Health & Wellness, LLC",,"Missouri Health & Wellness, LLC",Paul Rockers,573-301-9865,,Cass County,2024-03-17T22:44:54.291227,,DIS000156,,adult-use,DIS000156,Active,,,retailer,Missouri Department of Health and Senior Services,MDHSS,False,,MO 64012,Cass County,38.7952436,-94.5418141,MO,64012
,True,GRD Mexico LLC,,GRD Mexico LLC,,833-469-9333,,Audrain County,2024-03-17T22:44:54.291227,,DIS000157,,adult-use,DIS000157,Active,,,retailer,Missouri Department of Health and Senior Services,MDHSS,False,,MO 65265,Audrain County,39.1730652,-91.887271,MO,65265
,True,"New Growth Horizon, LLC",,"New Growth Horizon, LLC",John Pennington,314-749-2677,,Warren County,2024-03-17T22:44:54.291227,,DIS000158,,adult-use,DIS000158,Active,,,retailer,Missouri Department of Health and Senior Services,MDHSS,False,,MO,Warren County,38.8211845,-91.1391977,MO,63383
,True,"Kind Goods St. Peters, LLC",,"Kind Goods St. Peters, LLC",Andrew Lammert,314-223-6680,,St. Charles County,2024-03-17T22:44:54.291227,,DIS000159,,adult-use,DIS000159,Active,,,retailer,Missouri Department of Health and Senior Services,MDHSS,False,,St Peters,St. Charles County,38.7913245,-90.5643623,MO,63376
,True,GRD Columbia LLC,,GRD Columbia LLC,,833-469-9333,,Boone County,2024-03-17T22:44:54.291227,,DIS000160,,adult-use,DIS000160,Active,,,retailer,Missouri Department of Health and Senior Services,MDHSS,False,,MO 65203,,38.9538484,-92.3714428,MO,65203
,True,Mint MO 4 LLC,,Mint MO 4 LLC,Alasaundra Frampton,623-297-9109,,St. Charles County,2024-03-17T22:44:54.291227,,DIS000161,,adult-use,DIS000161,Active,,,retailer,Missouri Department of Health and Senior Services,MDHSS,False,,MO 63376,St. Charles County,38.7874699,-90.6298922,MO,63376
,True,"Shangri-La Jefferson, LLC.",,"Shangri-La Jefferson, LLC.",Nevil Patel,888-991-9222,,Cole County,2024-03-17T22:44:54.291227,,DIS000162,,adult-use,DIS000162,Active,,,retailer,Missouri Department of Health and Senior Services,MDHSS,False,,MO 65109,Cole County,38.5686223,-92.2433487,MO,65109
,True,"Shangri-La Nevada, LLC",,"Shangri-La Nevada, LLC",Shrinivas Haribhakti,573-476-3490,,Vernon County,2024-03-17T22:44:54.291227,,DIS000163,,adult-use,DIS000163,Active,,,retailer,Missouri Department of Health and Senior Services,MDHSS,False,,Nevada,Vernon County,37.8374447,-94.3760891,MO,64772
,True,MOAZ Industries LLC,,MOAZ Industries LLC,,573-745-4820,,Camden County,2024-03-17T22:44:54.291227,,DIS000164,,adult-use,DIS000164,Active,,,retailer,Missouri Department of Health and Senior Services,MDHSS,False,,MO 65065,,38.1280947,-92.6685736,MO,65065
,True,"North Medical Group, LLC",,"North Medical Group, LLC",Kelsey Volner,314-366-5617,,Jefferson County,2024-03-17T22:44:54.291227,,DIS000165,,adult-use,DIS000165,Active,,,retailer,Missouri Department of Health and Senior Services,MDHSS,False,,MO 63070,Jefferson County,38.2842567,-90.403094,MO,63070
,True,Heya Eldon Retail LLC,,Heya Eldon Retail LLC,Carl Bearden,314-650-4597,,Miller County,2024-03-17T22:44:54.291227,,DIS000166,,adult-use,DIS000166,Active,,,retailer,Missouri Department of Health and Senior Services,MDHSS,False,,MO 65026,Miller County,38.3341134,-92.5859673,MO,65026
,True,"Shangri-La Columbia, LLC",,"Shangri-La Columbia, LLC",Nevil Patel,888-991-9222,,Boone County,2024-03-17T22:44:54.291227,,DIS000167,,adult-use,DIS000167,Active,,,retailer,Missouri Department of Health and Senior Services,MDHSS,False,,Columbia,Boone County,38.96505459999999,-92.2877512,MO,65202
,True,Heya St. Charles Retail II LLC,,Heya St. Charles Retail II LLC,Carl Bearden,314-650-4597,,St. Charles County,2024-03-17T22:44:54.291227,,DIS000168,,adult-use,DIS000168,Active,,,retailer,Missouri Department of Health and Senior Services,MDHSS,False,,St Peters,St. Charles County,38.7985678,-90.58314419999999,MO,63376
,True,"Sunrise Beach GP, LLC",,"Sunrise Beach GP, LLC",,866-217-4063,,Camden County,2024-03-17T22:44:54.291227,,DIS000169,,adult-use,DIS000169,Active,,,retailer,Missouri Department of Health and Senior Services,MDHSS,False,,MO 65079,Camden County,38.1758645,-92.7843553,MO,65079
,True,"Green South Missouri, LLC",,"Green South Missouri, LLC",Aaron Crawley,479-502-0487,,Jasper County,2024-03-17T22:44:54.291227,,DIS000170,,adult-use,DIS000170,Active,,,retailer,Missouri Department of Health and Senior Services,MDHSS,False,,Joplin,Newton County,37.0529983,-94.4105747,MO,64804
,True,Blue Arrow Holdings LLC,,Blue Arrow Holdings LLC,Zach Voudrie,314-359-1987,,Camden County,2024-03-17T22:44:54.291227,,DIS000171,,adult-use,DIS000171,Active,,,retailer,Missouri Department of Health and Senior Services,MDHSS,False,,MO 65079,Camden County,38.1758645,-92.7843553,MO,65079
,True,"Shangri-La Columbia South, LLC",,"Shangri-La Columbia South, LLC",Nevil Patel,888-991-9222,,Boone County,2024-03-17T22:44:54.291227,,DIS000172,,adult-use,DIS000172,Active,,,retailer,Missouri Department of Health and Senior Services,MDHSS,False,,Columbia,Boone County,38.9061572,-92.3359363,MO,65203
,True,"Green South Missouri, LLC",,"Green South Missouri, LLC",Aaron Crawley,479-502-0487,,Jasper County,2024-03-17T22:44:54.291227,,DIS000173,,adult-use,DIS000173,Active,,,retailer,Missouri Department of Health and Senior Services,MDHSS,False,,Joplin,Newton County,37.0529983,-94.4105747,MO,64804
,True,"STL Dispensaries 51, LLC",,"STL Dispensaries 51, LLC",Paul Rockers,573-301-9865,,Jefferson County,2024-03-17T22:44:54.291227,,DIS000174,,adult-use,DIS000174,Active,,,retailer,Missouri Department of Health and Senior Services,MDHSS,False,,Imperial,Jefferson County,38.3704512,-90.3874269,MO,63052
,True,THF Partners LLC,,THF Partners LLC,Krystal Wright,816-588-8838,,Cass County,2024-03-17T22:44:54.291227,,DIS000175,,adult-use,DIS000175,Active,,,retailer,Missouri Department of Health and Senior Services,MDHSS,False,,MO 64701,Cass County,38.6533445,-94.3488372,MO,64701
,True,Missouri Wild Apothecary LLC,,Missouri Wild Apothecary LLC,Jason Crady,314-709-1745,,St. Charles County,2024-03-17T22:44:54.291227,,DIS000176,,adult-use,DIS000176,Active,,,retailer,Missouri Department of Health and Senior Services,MDHSS,False,,O'Fallon,St. Charles County,38.8061537,-90.7692697,MO,63366
,True,COMO Health LLC,,COMO Health LLC,Kevin Gibbs,240-447-5806,,Boone County,2024-03-17T22:44:54.291227,,DIS000177,,adult-use,DIS000177,Active,,,retailer,Missouri Department of Health and Senior Services,MDHSS,False,,MO 65201,,38.951674,-92.33254099999999,MO,65201
,True,"GF Wright City, LLC",,"GF Wright City, LLC",Dan Welsh,314-520-4515,,Warren County,2024-03-17T22:44:54.291227,,DIS000178,,adult-use,DIS000178,Active,,,retailer,Missouri Department of Health and Senior Services,MDHSS,False,,MO,Warren County,38.8275491,-91.0201422,MO,63390
,True,"St. Claire DIS179, Inc.",,"St. Claire DIS179, Inc.",Paul Rockers,573-301-9865,,Franklin County,2024-03-17T22:44:54.291227,,DIS000179,,adult-use,DIS000179,Active,,,retailer,Missouri Department of Health and Senior Services,MDHSS,False,,MO 63077,Franklin County,38.3471103,-90.9818547,MO,63077
,True,JG Missouri LLC,,JG Missouri LLC,Gail Brashers-Krug,319-621-4006,,Cass County,2024-03-17T22:44:54.291227,,DIS000180,,adult-use,DIS000180,Active,,,retailer,Missouri Department of Health and Senior Services,MDHSS,False,,MO 64012,Cass County,38.7952436,-94.5418141,MO,64012
,True,Green Gryphon LLC,,Green Gryphon LLC,Alex Close,614-296-7521,,Franklin County,2024-03-17T22:44:54.291227,,DIS000181,,adult-use,DIS000181,Active,,,retailer,Missouri Department of Health and Senior Services,MDHSS,False,,MO 63069,Franklin County,38.4819976,-90.7415194,MO,63069
,True,"QPS Missouri Holdings, LLC",,"QPS Missouri Holdings, LLC",Vishal Rungta,734-412-4600,,Boone County,2024-03-17T22:44:54.291227,,DIS000182,,adult-use,DIS000182,Active,,,retailer,Missouri Department of Health and Senior Services,MDHSS,False,,MO 65203,,38.9538484,-92.3714428,MO,65203
,True,"QPS Missouri Holdings, LLC",,"QPS Missouri Holdings, LLC",Vishal Rungta,734-412-4600,,Pulaski County,2024-03-17T22:44:54.291227,,DIS000183,,adult-use,DIS000183,Active,,,retailer,Missouri Department of Health and Senior Services,MDHSS,False,,MO,Pulaski County,37.8280961,-92.17766639999999,MO,65584
,True,Columbia Care MO LLC,,Columbia Care MO LLC,Derek Coxson,314-269-6838,,Gasconade County,2024-03-17T22:44:54.291227,,DIS000184,,adult-use,DIS000184,Active,,,retailer,Missouri Department of Health and Senior Services,MDHSS,False,,MO 65041,Gasconade County,38.7042119,-91.4373844,MO,65041
,True,Agri-Genesis LLC,,Agri-Genesis LLC,Richard Gunnels,660-651-8895,,Henry County,2024-03-17T22:44:54.291227,,DIS000186,,adult-use,DIS000186,Active,,,retailer,Missouri Department of Health and Senior Services,MDHSS,False,,MO 64735,Henry County,38.3686324,-93.7782689,MO,64735
,True,SMO5 LLC,,SMO5 LLC,LeAnne Dickerson,816-810-3236,,Laclede County,2024-03-17T22:44:54.291227,,DIS000187,,adult-use,DIS000187,Active,,,retailer,Missouri Department of Health and Senior Services,MDHSS,False,,MO 65536,Laclede County,37.6805967,-92.6637865,MO,65536
,True,GRD Moberly LLC,,GRD Moberly LLC,,833-469-9333,,Randolph County,2024-03-17T22:44:54.291227,,DIS000188,,adult-use,DIS000188,Active,,,retailer,Missouri Department of Health and Senior Services,MDHSS,False,,MO,Randolph County,39.4183689,-92.43823669999999,MO,65270
,True,Holistic Missouri LLC,,Holistic Missouri LLC,,866-217-4063,,Boone County,2024-03-17T22:44:54.291227,,DIS000189,,adult-use,DIS000189,Active,,,retailer,Missouri Department of Health and Senior Services,MDHSS,False,,MO 65203,,38.9538484,-92.3714428,MO,65203
,True,"BBMO 3, LLC",,"BBMO 3, LLC",Nicholas  Rinella,312-925-1217,,Boone County,2024-03-17T22:44:54.291227,,DIS000190,,adult-use,DIS000190,Active,,,retailer,Missouri Department of Health and Senior Services,MDHSS,False,,MO,Boone County,38.9517053,-92.3340724,MO,65201
,True,"Elevation Cannabis, LLC",,"Elevation Cannabis, LLC",Chris  Issinghoff,620-921-5967,,Cass County,2024-03-17T22:44:54.291227,,DIS000191,,adult-use,DIS000191,Active,,,retailer,Missouri Department of Health and Senior Services,MDHSS,False,,MO,Cass County,38.8119527,-94.5318982,MO,64012
,True,"Organic Remedies MO, Inc.",,"Organic Remedies MO, Inc.",,573-279-4020,,Pettis County,2024-03-17T22:44:54.291227,,DIS000192,,adult-use,DIS000192,Active,,,retailer,Missouri Department of Health and Senior Services,MDHSS,False,,MO 65301,Pettis County,38.7044609,-93.2282613,MO,65301
,True,"Kind Goods Manchester, LLC",,"Kind Goods Manchester, LLC",Andrew Lammert,314-223-6680,,St. Louis County,2024-03-17T22:44:54.291227,,DIS000193,,adult-use,DIS000193,Active,,,retailer,Missouri Department of Health and Senior Services,MDHSS,False,,Manchester,St. Louis County,38.5939216,-90.4985351,MO,63011
,True,BTMD Holdings LLC,,BTMD Holdings LLC,Cameron Fraker,319-521-1850,,Morgan County,2024-03-17T22:44:54.291227,,DIS000194,,adult-use,DIS000194,Active,,,retailer,Missouri Department of Health and Senior Services,MDHSS,False,,MO,Morgan County,38.3083614,-92.8254697,MO,65037
,True,BeLeaf Medical LLC,,BeLeaf Medical LLC,Kevin Riggs,636-448-6021,,St. Louis city,2024-03-17T22:44:54.291227,,DIS000195,,adult-use,DIS000195,Active,,,retailer,Missouri Department of Health and Senior Services,MDHSS,False,,Earth City,St. Louis County,38.76786329999999,-90.453037,MO,63110
,True,Holistic Missouri LLC,,Holistic Missouri LLC,,866-217-4063,,Phelps County,2024-03-17T22:44:54.291227,,DIS000196,,adult-use,DIS000196,Active,,,retailer,Missouri Department of Health and Senior Services,MDHSS,False,,MO,Phelps County,37.948544,-91.7715303,MO,65401
,True,FP3-Grand LLC,,FP3-Grand LLC,Krystal Wright,816-588-8838,,St. Louis city,2024-03-17T22:44:54.291227,,DIS000197,,adult-use,DIS000197,Active,,,retailer,Missouri Department of Health and Senior Services,MDHSS,False,,St. Louis,,38.598089,-90.2429759,MO,63109
,True,AJM Ventures LLC,,AJM Ventures LLC,Michael Lollis,417-353-7174,,Dallas County,2024-03-17T22:44:54.291227,,DIS000198,,adult-use,DIS000198,Active,,,retailer,Missouri Department of Health and Senior Services,MDHSS,False,,MO 65622,Dallas County,37.6439289,-93.0924093,MO,65622
,True,Kansas City Cannabis Company LLC,,Kansas City Cannabis Company LLC,Kevin Stallings,816-223-7159,,Jackson County,2024-03-17T22:44:54.291227,,DIS000199,,adult-use,DIS000199,Inactive,,,retailer,Missouri Department of Health and Senior Services,MDHSS,False,,Lake Lotawana,Jackson County,38.9462777,-94.27577169999999,MO,64086
,True,"OND Explore, LLC",,"OND Explore, LLC",Timothy O'Hern,314-813-3058,,St. Charles County,2024-03-17T22:44:54.291227,,DIS000200,,adult-use,DIS000200,Active,,,retailer,Missouri Department of Health and Senior Services,MDHSS,False,,MO 63376,St. Charles County,38.7874699,-90.6298922,MO,63376
,True,GRD Kirksville LLC,,GRD Kirksville LLC,Jigneshkumar Patel,660-233-2359,,Jackson County,2024-03-17T22:44:54.291227,,DIS000201,,adult-use,DIS000201,Active,,,retailer,Missouri Department of Health and Senior Services,MDHSS,False,,MO 63501,Adair County,40.19475389999999,-92.5832496,MO,64063
,True,"Root 66 Des Peres, LLC",,"Root 66 Des Peres, LLC",Joseph Delia,314-282-4679,,St. Louis County,2024-03-17T22:44:54.291227,,DIS000202,,adult-use,DIS000202,Active,,,retailer,Missouri Department of Health and Senior Services,MDHSS,False,,Des Peres,St. Louis County,38.6026304,-90.43708269999999,MO,63131
,True,"Ozarx Botanicals II, LLC",,"Ozarx Botanicals II, LLC",Kimberli Andrews,417-839-5467,,Greene County,2024-03-17T22:44:54.291227,,DIS000203,,adult-use,DIS000203,Active,,,retailer,Missouri Department of Health and Senior Services,MDHSS,False,,Springfield,Greene County,37.1821734,-93.35627559999999,MO,65804
,True,"Elevation Cannabis, LLC",,"Elevation Cannabis, LLC",Chris  Issinghoff,620-921-5967,,Clay County,2024-03-17T22:44:54.291227,,DIS000204,,adult-use,DIS000204,Active,,,retailer,Missouri Department of Health and Senior Services,MDHSS,False,,MO,Jackson County,39.0997265,-94.5785667,MO,64119
,True,"JAWS Ventures, Inc.",,"JAWS Ventures, Inc.",Rebekah Bromberg,314-303-8405,,St. Louis city,2024-03-17T22:44:54.291227,,DIS000206,,adult-use,DIS000206,Inactive,,,retailer,Missouri Department of Health and Senior Services,MDHSS,False,,MO 63104,,38.6160491,-90.2291565,MO,63104
,True,"The Forest Kansas City, LLC",,"The Forest Kansas City, LLC",April Reed,716-400-9526,,Jackson County,2024-03-17T22:44:54.291227,,DIS000207,,adult-use,DIS000207,Active,,,retailer,Missouri Department of Health and Senior Services,MDHSS,False,,Kansas City,Jackson County,39.0516998,-94.59505949999999,MO,64108
,True,"New Growth Horizon, LLC",,"New Growth Horizon, LLC",John Pennington,314-749-2677,,St. Louis County,2024-03-17T22:44:54.291227,,DIS000208,,adult-use,DIS000208,Active,,,retailer,Missouri Department of Health and Senior Services,MDHSS,False,,MO 63044,St. Louis County,38.767401,-90.44080369999999,MO,63044
,True,"MOTACANN Holdings, LLC",,"MOTACANN Holdings, LLC",Brian Besse,314-705-1122,,St. Louis County,2024-03-17T22:44:54.291227,,DIS000209,,adult-use,DIS000209,Active,,,retailer,Missouri Department of Health and Senior Services,MDHSS,False,,MO 63043,,38.7254453,-90.45967209999999,MO,63043
,True,"SLCC, LLC",,"SLCC, LLC",Katie Davies,907-952-2328,,St. Louis County,2024-03-17T22:44:54.291227,,DIS000210,,adult-use,DIS000210,Active,,,retailer,Missouri Department of Health and Senior Services,MDHSS,False,,MO 63117,,38.6289223,-90.33013419999999,MO,63117
,True,"OWG II, LLC",,"OWG II, LLC",Stephanie Stenger,417-889-4300,,Polk County,2024-03-17T22:44:54.291227,,DIS000211,,adult-use,DIS000211,Inactive,,,retailer,Missouri Department of Health and Senior Services,MDHSS,False,,MO 65613,Polk County,37.6144838,-93.4104749,MO,65613
,True,"MoBIG Properties, LLC",,"MoBIG Properties, LLC",Nancy Price,417-343-8257,,Cooper County,2024-03-17T22:44:54.291227,,DIS000212,,adult-use,DIS000212,Active,,,retailer,Missouri Department of Health and Senior Services,MDHSS,False,,MO 65233,Cooper County,38.9736392,-92.74324179999999,MO,65233
,True,"MoBIG Properties, LLC",,"MoBIG Properties, LLC",Nancy Price,417-343-8257,,Harrison County,2024-03-17T22:44:54.291227,,DIS000213,,adult-use,DIS000213,Active,,,retailer,Missouri Department of Health and Senior Services,MDHSS,False,,MO 64442,Harrison County,40.4691664,-93.98717359999999,MO,64442
,True,"Organic Remedies MO, Inc.",,"Organic Remedies MO, Inc.",,573-279-4020,,Jackson County,2024-03-17T22:44:54.291227,,DIS000214,,adult-use,DIS000214,Inactive,,,retailer,Missouri Department of Health and Senior Services,MDHSS,False,,MO 64131,Jackson County,38.94506680000001,-94.5779191,MO,64131
,True,"MOrganic Remedies MO, Inc.",,"MOrganic Remedies MO, Inc.",Theodore Blum,847-945-4555,,St. Louis County,2024-03-17T22:44:54.291227,,DIS000215,,adult-use,DIS000215,Inactive,,,retailer,Missouri Department of Health and Senior Services,MDHSS,False,,MO 63005,,38.6299452,-90.6962853,MO,63005
,True,Missouri Medical Marijuana Collective LLC,,Missouri Medical Marijuana Collective LLC,Justin  Neely,314-718-0279,,Dunklin County,2024-03-17T22:44:54.291227,,DIS000216,,adult-use,DIS000216,Inactive,,,retailer,Missouri Department of Health and Senior Services,MDHSS,False,,MO 63829,Dunklin County,36.0470133,-90.2928776,MO,63829
,True,Certified Alternative Medicine Providers,,Certified Alternative Medicine Providers,Paul Rockers,573-301-9865,,Camden County,2024-03-17T22:44:54.291227,,DIS000217,,adult-use,DIS000217,Active,,,retailer,Missouri Department of Health and Senior Services,MDHSS,False,,MO 65065,,38.1280947,-92.6685736,MO,65065
,True,4Releaf Wellness Center LLC,,4Releaf Wellness Center LLC,Kimberly Egelhoff,314-277-5195,,Cole County,2024-03-17T22:44:54.291227,,DIS000218,,adult-use,DIS000218,Inactive,,,retailer,Missouri Department of Health and Senior Services,MDHSS,False,,MO 65109,Cole County,38.5686223,-92.2433487,MO,65109
,True,"OZ APP, LLC",,"OZ APP, LLC",Lisa Gray,573-482-5836,,Pemiscot County,2024-03-17T22:44:54.291227,,DIS000219,,adult-use,DIS000219,Inactive,,,retailer,Missouri Department of Health and Senior Services,MDHSS,False,,MO 63830,Pemiscot County,36.1931245,-89.6556353,MO,63830
,False,ROI Wellness Center IV LLC,,ROI Wellness Center IV LLC,Jared Bradley,417-848-8055,,Camden County,2024-03-17T22:44:54.291227,,DIS000220,,medical,DIS000220,Inactive,,,retailer,Missouri Department of Health and Senior Services,MDHSS,True,,MO,Miller County,38.1986435,-92.6387968,MO,65049
,True,SMO3 INC,,SMO3 INC,LeAnne Dickerson,816-810-3236,,Cass County,2024-03-17T22:44:54.291227,,DIS000221,,adult-use,DIS000221,Inactive,,,retailer,Missouri Department of Health and Senior Services,MDHSS,False,,MO 64012,Cass County,38.7952436,-94.5418141,MO,64012
,True,Feel State Inc.,,Feel State Inc.,David Melnick,314-583-2207,,Cape Girardeau County,2024-03-17T22:44:54.291227,,DIS000222,,adult-use,DIS000222,Inactive,,,retailer,Missouri Department of Health and Senior Services,MDHSS,False,,MO 63703,Cape Girardeau County,37.2856186,-89.5403279,MO,63703
,True,Tetra Health GS LLC,,Tetra Health GS LLC,Ronald Hyde,417-259-3905,,Taney County,2024-03-17T22:44:54.291227,,DIS000223,,adult-use,DIS000223,Inactive,,,retailer,Missouri Department of Health and Senior Services,MDHSS,False,,MO 65672,Taney County,36.6211735,-93.2154587,MO,65672
,True,"Verdant Creations Missouri 2, LLC",,"Verdant Creations Missouri 2, LLC",Krystal Wright,816-588-8838,,Nodaway County,2024-03-17T22:44:54.291227,,DIS000224,,adult-use,DIS000224,Inactive,,,retailer,Missouri Department of Health and Senior Services,MDHSS,False,,MO 64468,Nodaway County,40.3461017,-94.8724706,MO,64468
,False,"Dream Leaf, LLC",,"Dream Leaf, LLC",Krystal Wright,816-588-8838,,Jackson County,2024-03-17T22:44:54.291227,,DIS000225,,medical,DIS000225,Inactive,,,retailer,Missouri Department of Health and Senior Services,MDHSS,True,,MO 64114,Jackson County,38.9546734,-94.5985613,MO,64114
